{
  "version": 0.6,
  "generator": "Overpass API 0.7.62.11 87bfad18",
  "osm3s": {
    "timestamp_osm_base": "2026-04-23T09:14:16Z",
    "copyright": "The data included in this document is from www.openstreetmap.org. The data is made available under ODbL."
  },
  "elements": [
    {
      "type": "node",
      "id": 277632174,
      "lat": 39.9924549,
      "lon": 116.4003691,
      "tags": {
        "addr:city": "北京市",
        "addr:district": "朝阳区",
        "addr:province": "北京市",
        "name": "北京北辰亚运村宾馆",
        "name:en": "North Star YaYunCun Hotel",
        "name:zh": "北辰亚运村宾馆",
        "tourism": "hotel"
      }
    },
    {
      "type": "node",
      "id": 297113660,
      "lat": 39.9935641,
      "lon": 116.3741231,
      "tags": {
        "bus": "yes",
        "name": "安翔北里",
        "name:zh": "安翔北里",
        "public_transport": "stop_position"
      }
    },
    {
      "type": "node",
      "id": 339097239,
      "lat": 39.999324,
      "lon": 116.386751,
      "tags": {
        "name": "奥林匹克公园",
        "name:en": "Olympic Park",
        "name:zh": "奥林匹克公园",
        "name:zh-Hans": "奥林匹克公园",
        "name:zh-Hant": "奧林匹克公園",
        "public_transport": "stop_position",
        "railway": "stop",
        "subway": "yes",
        "wikidata": "Q7089092",
        "wikipedia": "zh:奥林匹克公园站 (北京市)"
      }
    },
    {
      "type": "node",
      "id": 339097485,
      "lat": 40.0091958,
      "lon": 116.3862915,
      "tags": {
        "name": "森林公园南门",
        "name:en": "South Gate of Forest Park",
        "name:zh": "森林公园南门",
        "name:zh-Hans": "森林公园南门",
        "name:zh-Hant": "森林公園南門",
        "public_transport": "stop_position",
        "railway": "stop",
        "subway": "yes"
      }
    },
    {
      "type": "node",
      "id": 528821554,
      "lat": 39.9963379,
      "lon": 116.3751096,
      "tags": {
        "bus": "yes",
        "name": "科学园南里",
        "name:zh": "科学园南里",
        "public_transport": "stop_position"
      }
    },
    {
      "type": "node",
      "id": 1094072326,
      "lat": 40.002543,
      "lon": 116.4110577,
      "tags": {
        "name": "大屯路东",
        "name:en": "Datunlu East",
        "public_transport": "stop_position",
        "railway": "stop",
        "subway": "yes"
      }
    },
    {
      "type": "node",
      "id": 1094073255,
      "lat": 40.0025371,
      "lon": 116.4110224,
      "tags": {
        "name": "大屯路东",
        "name:en": "Datunlu East",
        "public_transport": "stop_position",
        "railway": "stop",
        "subway": "yes"
      }
    },
    {
      "type": "node",
      "id": 1190858760,
      "lat": 40.0006751,
      "lon": 116.3768356,
      "tags": {
        "bus": "yes",
        "name": "中科院地理所",
        "name:zh": "中科院地理所",
        "public_transport": "stop_position"
      }
    },
    {
      "type": "node",
      "id": 1190858763,
      "lat": 40.0004214,
      "lon": 116.3752419,
      "tags": {
        "bus": "yes",
        "name": "中科院地理所",
        "name:zh": "中科院地理所",
        "public_transport": "stop_position"
      }
    },
    {
      "type": "node",
      "id": 1226476825,
      "lat": 40.0141935,
      "lon": 116.4016834,
      "tags": {
        "bus": "yes",
        "name": "仰山桥南",
        "name:zh": "仰山桥南",
        "public_transport": "stop_position"
      }
    },
    {
      "type": "node",
      "id": 1346457340,
      "lat": 40.0082054,
      "lon": 116.3858966,
      "tags": {
        "name": "D口",
        "railway": "subway_entrance",
        "ref": "D"
      }
    },
    {
      "type": "node",
      "id": 1346457343,
      "lat": 40.0082195,
      "lon": 116.3868914,
      "tags": {
        "name": "C口",
        "railway": "subway_entrance",
        "ref": "C"
      }
    },
    {
      "type": "node",
      "id": 1346457386,
      "lat": 40.0090094,
      "lon": 116.3858244,
      "tags": {
        "name": "A口",
        "railway": "subway_entrance",
        "ref": "A"
      }
    },
    {
      "type": "node",
      "id": 1346457391,
      "lat": 40.009042,
      "lon": 116.3868119,
      "tags": {
        "name": "B口",
        "railway": "subway_entrance",
        "ref": "B"
      }
    },
    {
      "type": "node",
      "id": 1350157807,
      "lat": 40.0175254,
      "lon": 116.3842293,
      "tags": {
        "amenity": "toilets"
      }
    },
    {
      "type": "node",
      "id": 1352161815,
      "lat": 39.9993264,
      "lon": 116.3869738,
      "tags": {
        "name": "奥林匹克公园",
        "name:en": "Olympic Park",
        "name:zh": "奥林匹克公园",
        "name:zh-Hans": "奥林匹克公园",
        "name:zh-Hant": "奧林匹克公園",
        "public_transport": "stop_position",
        "railway": "stop",
        "subway": "yes",
        "wikidata": "Q7089092",
        "wikipedia": "zh:奥林匹克公园站 (北京市)"
      }
    },
    {
      "type": "node",
      "id": 1352161816,
      "lat": 40.0092004,
      "lon": 116.3865179,
      "tags": {
        "name": "森林公园南门",
        "name:en": "South Gate of Forest Park",
        "name:zh": "森林公园南门",
        "name:zh-Hans": "森林公园南门",
        "name:zh-Hant": "森林公園南門",
        "public_transport": "stop_position",
        "railway": "stop",
        "subway": "yes"
      }
    },
    {
      "type": "node",
      "id": 1352161836,
      "lat": 40.0118918,
      "lon": 116.3862458,
      "tags": {
        "railway": "buffer_stop"
      }
    },
    {
      "type": "node",
      "id": 1352161837,
      "lat": 40.011893,
      "lon": 116.3863107,
      "tags": {
        "railway": "buffer_stop"
      }
    },
    {
      "type": "node",
      "id": 1367513522,
      "lat": 40.0011569,
      "lon": 116.4065764,
      "tags": {
        "amenity": "restaurant",
        "cuisine": "chinese",
        "name": "金鼎轩 Jīn Dǐng Xuān"
      }
    },
    {
      "type": "node",
      "id": 1587187571,
      "lat": 39.9984515,
      "lon": 116.3804952,
      "tags": {
        "bench": "no",
        "bus": "yes",
        "highway": "bus_stop",
        "name": "国家体育馆",
        "name:zh": "国家体育馆",
        "name:zh-Hans": "国家体育馆",
        "name:zh-Hant": "國家體育館",
        "public_transport": "platform",
        "shelter": "yes"
      }
    },
    {
      "type": "node",
      "id": 1587187575,
      "lat": 39.9986772,
      "lon": 116.3809347,
      "tags": {
        "bench": "no",
        "bus": "yes",
        "highway": "bus_stop",
        "name": "国家会议中心",
        "name:zh": "国家会议中心",
        "name:zh-Hant": "國家會議中心",
        "old_name": "新闻中心",
        "passenger_information_display": "yes",
        "public_transport": "platform",
        "shelter": "yes",
        "tactile_paving": "yes"
      }
    },
    {
      "type": "node",
      "id": 1587187579,
      "lat": 39.9993464,
      "lon": 116.3804533,
      "tags": {
        "bench": "yes",
        "bin": "yes",
        "bus": "yes",
        "highway": "bus_stop",
        "name": "国家会议中心",
        "name:zh": "国家会议中心",
        "name:zh-Hant": "國家會議中心",
        "old_name": "新闻中心",
        "passenger_information_display": "yes",
        "public_transport": "platform",
        "shelter": "yes",
        "tactile_paving": "yes"
      }
    },
    {
      "type": "node",
      "id": 1587187719,
      "lat": 39.9984524,
      "lon": 116.3805852,
      "tags": {
        "bus": "yes",
        "name": "国家体育馆",
        "name:zh": "国家体育馆",
        "name:zh-Hans": "国家体育馆",
        "name:zh-Hant": "國家體育館",
        "public_transport": "stop_position"
      }
    },
    {
      "type": "node",
      "id": 1587187723,
      "lat": 39.9986755,
      "lon": 116.3808244,
      "tags": {
        "bus": "yes",
        "name": "国家会议中心",
        "name:zh": "国家会议中心",
        "public_transport": "stop_position"
      }
    },
    {
      "type": "node",
      "id": 1587187752,
      "lat": 39.9993493,
      "lon": 116.3805426,
      "tags": {
        "bus": "yes",
        "name": "国家会议中心",
        "name:zh": "国家会议中心",
        "public_transport": "stop_position"
      }
    },
    {
      "type": "node",
      "id": 1652482059,
      "lat": 40.0034707,
      "lon": 116.3693763,
      "tags": {
        "bus": "yes",
        "name": "奥运村西",
        "name:zh": "奥运村西",
        "name:zh-Hans": "奥运村西",
        "name:zh-Hant": "奧運村西",
        "public_transport": "stop_position"
      }
    },
    {
      "type": "node",
      "id": 1652505362,
      "lat": 40.0023864,
      "lon": 116.4017323,
      "tags": {
        "bus": "yes",
        "name": "慧忠北里",
        "name:zh": "慧忠北里",
        "public_transport": "stop_position"
      }
    },
    {
      "type": "node",
      "id": 1652505366,
      "lat": 40.0027708,
      "lon": 116.40174,
      "tags": {
        "bus": "yes",
        "name": "慧忠北里",
        "name:zh": "慧忠北里",
        "public_transport": "stop_position"
      }
    },
    {
      "type": "node",
      "id": 1652540778,
      "lat": 40.0142045,
      "lon": 116.4018669,
      "tags": {
        "bus": "yes",
        "name": "仰山桥南",
        "name:zh": "仰山桥南",
        "public_transport": "stop_position"
      }
    },
    {
      "type": "node",
      "id": 1652540782,
      "lat": 40.0065738,
      "lon": 116.401644,
      "tags": {
        "bus": "yes",
        "name": "慧忠北里北",
        "name:zh": "慧忠北里北",
        "old_name:-2021": "华汇商厦",
        "public_transport": "stop_position"
      }
    },
    {
      "type": "node",
      "id": 1652540793,
      "lat": 40.0065922,
      "lon": 116.4017913,
      "tags": {
        "bus": "yes",
        "name": "慧忠北里北",
        "name:zh": "慧忠北里北",
        "old_name:-2021": "华汇商厦",
        "public_transport": "stop_position"
      }
    },
    {
      "type": "node",
      "id": 1652540797,
      "lat": 40.0026693,
      "lon": 116.4015656,
      "tags": {
        "bus": "yes",
        "name": "慧忠北里",
        "name:zh": "慧忠北里",
        "public_transport": "stop_position"
      }
    },
    {
      "type": "node",
      "id": 1718023509,
      "lat": 40.0035565,
      "lon": 116.3695767,
      "tags": {
        "bus": "yes",
        "name": "奥运村西",
        "name:zh": "奥运村西",
        "name:zh-Hans": "奥运村西",
        "name:zh-Hant": "奧運村西",
        "public_transport": "stop_position"
      }
    },
    {
      "type": "node",
      "id": 1718038281,
      "lat": 40.0034468,
      "lon": 116.4015774,
      "tags": {
        "bus": "yes",
        "name": "慧忠北里",
        "name:zh": "慧忠北里",
        "public_transport": "stop_position"
      }
    },
    {
      "type": "node",
      "id": 1718852312,
      "lat": 40.0036085,
      "lon": 116.4023735,
      "tags": {
        "name": "中奥马哥孛罗大酒店",
        "name:en": "Marco Polo Parkside Hotel",
        "tourism": "hotel",
        "website": "https://www.marcopolohotels.com/marco_polo/hotels/china/beijing/marco_polo_parkside/index.html"
      }
    },
    {
      "type": "node",
      "id": 1732894984,
      "lat": 40.0006846,
      "lon": 116.3890904,
      "tags": {
        "bench": "no",
        "bus": "yes",
        "highway": "bus_stop",
        "name": "洼里南口",
        "name:zh": "洼里南口",
        "public_transport": "platform",
        "shelter": "no"
      }
    },
    {
      "type": "node",
      "id": 1732894985,
      "lat": 40.0010633,
      "lon": 116.3888395,
      "tags": {
        "bench": "no",
        "bus": "yes",
        "highway": "bus_stop",
        "name": "洼里南口",
        "name:zh": "洼里南口",
        "public_transport": "platform",
        "shelter": "no"
      }
    },
    {
      "type": "node",
      "id": 1734293305,
      "lat": 39.9907948,
      "lon": 116.3812528,
      "tags": {
        "bus": "yes",
        "name": "北辰西桥北",
        "name:zh": "北辰西桥北",
        "public_transport": "stop_position"
      }
    },
    {
      "type": "node",
      "id": 1734297843,
      "lat": 39.9942857,
      "lon": 116.3810714,
      "tags": {
        "bus": "yes",
        "name": "国家体育馆",
        "name:zh": "国家体育馆",
        "name:zh-Hans": "国家体育馆",
        "name:zh-Hant": "國家體育館",
        "public_transport": "stop_position"
      }
    },
    {
      "type": "node",
      "id": 1734312870,
      "lat": 39.9962655,
      "lon": 116.3751927,
      "tags": {
        "bus": "yes",
        "highway": "bus_stop",
        "name": "科学园南里",
        "name:zh": "科学园南里",
        "name:zh-Hant": "科學園南里",
        "public_transport": "platform"
      }
    },
    {
      "type": "node",
      "id": 1734312878,
      "lat": 39.9964087,
      "lon": 116.3751004,
      "tags": {
        "bus": "yes",
        "highway": "bus_stop",
        "name": "科学园南里",
        "name:zh": "科学园南里",
        "name:zh-Hant": "科學園南里",
        "public_transport": "platform"
      }
    },
    {
      "type": "node",
      "id": 1734313041,
      "lat": 39.9963426,
      "lon": 116.3751912,
      "tags": {
        "bus": "yes",
        "name": "科学园南里",
        "name:zh": "科学园南里",
        "public_transport": "stop_position"
      }
    },
    {
      "type": "node",
      "id": 1754985783,
      "lat": 40.0003033,
      "lon": 116.3725317,
      "tags": {
        "bench": "no",
        "bin": "yes",
        "bus": "yes",
        "highway": "bus_stop",
        "name": "南沟泥河",
        "name:zh": "南沟泥河",
        "name:zh-Hans": "南沟泥河",
        "name:zh-Hant": "南溝泥河",
        "passenger_information_display": "yes",
        "public_transport": "platform",
        "shelter": "yes",
        "tactile_paving": "yes"
      }
    },
    {
      "type": "node",
      "id": 1754985794,
      "lat": 40.0003422,
      "lon": 116.3725327,
      "tags": {
        "bus": "yes",
        "name": "南沟泥河",
        "name:zh": "南沟泥河",
        "name:zh-Hans": "南沟泥河",
        "name:zh-Hant": "南溝泥河",
        "public_transport": "stop_position"
      }
    },
    {
      "type": "node",
      "id": 1761846122,
      "lat": 39.9935067,
      "lon": 116.4067405,
      "tags": {
        "amenity": "restaurant",
        "name": "Once & Always Restaurant"
      }
    },
    {
      "type": "node",
      "id": 1790399327,
      "lat": 39.9951443,
      "lon": 116.3812275,
      "tags": {
        "bus": "yes",
        "highway": "bus_stop",
        "name": "国家体育馆",
        "name:zh": "国家体育馆",
        "name:zh-Hans": "国家体育馆",
        "name:zh-Hant": "國家體育館",
        "public_transport": "platform"
      }
    },
    {
      "type": "node",
      "id": 1790399334,
      "lat": 39.995287,
      "lon": 116.3807765,
      "tags": {
        "bus": "yes",
        "name": "国家体育馆",
        "name:zh": "国家体育馆",
        "name:zh-Hans": "国家体育馆",
        "name:zh-Hant": "國家體育館",
        "public_transport": "stop_position"
      }
    },
    {
      "type": "node",
      "id": 1790399360,
      "lat": 39.9950934,
      "lon": 116.3811179,
      "tags": {
        "bus": "yes",
        "name": "国家体育馆",
        "name:zh": "国家体育馆",
        "name:zh-Hans": "国家体育馆",
        "name:zh-Hant": "國家體育館",
        "public_transport": "stop_position"
      }
    },
    {
      "type": "node",
      "id": 1790399367,
      "lat": 39.9927446,
      "lon": 116.3793061,
      "tags": {
        "bus": "yes",
        "name": "安翔北路东口",
        "name:zh": "安翔北路东口",
        "public_transport": "stop_position"
      }
    },
    {
      "type": "node",
      "id": 1790399372,
      "lat": 39.9927271,
      "lon": 116.3750714,
      "tags": {
        "bus": "yes",
        "name": "安翔北路",
        "name:zh": "安翔北路",
        "public_transport": "stop_position"
      }
    },
    {
      "type": "node",
      "id": 1790424836,
      "lat": 40.0007528,
      "lon": 116.376834,
      "tags": {
        "bus": "yes",
        "highway": "bus_stop",
        "name": "中科院地理所",
        "name:zh": "中科院地理所",
        "public_transport": "platform"
      }
    },
    {
      "type": "node",
      "id": 1806801666,
      "lat": 39.9926252,
      "lon": 116.3820129,
      "tags": {
        "amenity": "fast_food",
        "brand": "McDonald's",
        "brand:zh": "麦当劳",
        "cuisine": "american;burger",
        "name:en": "McDonald's",
        "name:zh": "麦当劳",
        "name:zh-Latn-pinyin": "Màidāngláo",
        "website": "http://mcdonalds.com.cn"
      }
    },
    {
      "type": "node",
      "id": 1806801667,
      "lat": 39.9926416,
      "lon": 116.3822972,
      "tags": {
        "amenity": "toilets"
      }
    },
    {
      "type": "node",
      "id": 1807875337,
      "lat": 40.00159,
      "lon": 116.41032,
      "tags": {
        "bench": "yes",
        "bin": "yes",
        "bus": "yes",
        "highway": "bus_stop",
        "name": "大屯路东口",
        "name:zh": "大屯路东口",
        "passenger_information_display": "yes",
        "public_transport": "platform",
        "shelter": "yes",
        "tactile_paving": "yes"
      }
    },
    {
      "type": "node",
      "id": 1807875362,
      "lat": 40.0015125,
      "lon": 116.410322,
      "tags": {
        "bus": "yes",
        "name": "大屯路东口",
        "name:zh": "大屯路东口",
        "public_transport": "stop_position"
      }
    },
    {
      "type": "node",
      "id": 1813979382,
      "lat": 40.0078884,
      "lon": 116.4086324,
      "tags": {
        "bus": "yes",
        "highway": "bus_stop",
        "name": "科荟路东口",
        "name:zh": "科荟路东口",
        "public_transport": "platform"
      }
    },
    {
      "type": "node",
      "id": 1813979393,
      "lat": 40.0080966,
      "lon": 116.4086856,
      "tags": {
        "bus": "yes",
        "highway": "bus_stop",
        "name": "科荟路东口",
        "name:zh": "科荟路东口",
        "public_transport": "platform"
      }
    },
    {
      "type": "node",
      "id": 1813979436,
      "lat": 40.0077908,
      "lon": 116.4130301,
      "tags": {
        "bus": "yes",
        "highway": "bus_stop",
        "name": "辛店路西口",
        "name:zh": "辛店路西口",
        "public_transport": "platform"
      }
    },
    {
      "type": "node",
      "id": 1813979439,
      "lat": 40.0079424,
      "lon": 116.4086304,
      "tags": {
        "bus": "yes",
        "name": "科荟路东口",
        "name:zh": "科荟路东口",
        "public_transport": "stop_position"
      }
    },
    {
      "type": "node",
      "id": 1813979440,
      "lat": 40.0080557,
      "lon": 116.4086838,
      "tags": {
        "bus": "yes",
        "name": "科荟路东口",
        "name:zh": "科荟路东口",
        "public_transport": "stop_position"
      }
    },
    {
      "type": "node",
      "id": 1891811759,
      "lat": 39.9897627,
      "lon": 116.3816856,
      "tags": {
        "tourism": "viewpoint"
      }
    },
    {
      "type": "node",
      "id": 1924568768,
      "lat": 39.9979066,
      "lon": 116.3815945,
      "tags": {
        "addr:housename": "北辰世纪中心B座",
        "addr:housenumber": "8",
        "addr:postcode": "100020",
        "addr:street": "北辰西路",
        "amenity": "cafe",
        "brand": "星巴克",
        "brand:en": "Starbucks",
        "brand:wikidata": "Q37158",
        "brand:wikipedia": "zh:星巴克",
        "brand:zh": "星巴克",
        "cuisine": "coffee_shop",
        "internet_access": "wlan",
        "name": "星巴克",
        "name:en": "Starbucks",
        "name:zh": "星巴克",
        "name:zh-Latn-pinyin": "Xīngbākè",
        "takeaway": "yes",
        "website": "https://www.starbucks.com.cn/"
      }
    },
    {
      "type": "node",
      "id": 1924677389,
      "lat": 39.9979101,
      "lon": 116.3821512,
      "tags": {
        "addr:housename": "北辰世纪中心B座",
        "addr:housenumber": "8",
        "addr:postcode": "100020",
        "addr:street": "北辰西路",
        "amenity": "restaurant",
        "brand": "李先生",
        "brand:en": "Mr. Lee",
        "brand:wikidata": "Q6928843",
        "brand:zh": "李先生",
        "cuisine": "chinese;noodles",
        "name": "李先生",
        "name:en": "Mr. Lee",
        "name:zh": "李先生"
      }
    },
    {
      "type": "node",
      "id": 1977776221,
      "lat": 40.0012748,
      "lon": 116.4093659,
      "tags": {
        "bench": "yes",
        "bin": "yes",
        "bus": "yes",
        "highway": "bus_stop",
        "name": "大屯路东口",
        "name:zh": "大屯路东口",
        "passenger_information_display": "yes",
        "public_transport": "platform",
        "shelter": "yes",
        "tactile_paving": "yes"
      }
    },
    {
      "type": "node",
      "id": 1977776224,
      "lat": 40.0014209,
      "lon": 116.4093648,
      "tags": {
        "bus": "yes",
        "name": "大屯路东口",
        "name:zh": "大屯路东口",
        "public_transport": "stop_position"
      }
    },
    {
      "type": "node",
      "id": 1977788616,
      "lat": 40.0002472,
      "lon": 116.4111445,
      "tags": {
        "bench": "yes",
        "bin": "yes",
        "bus": "yes",
        "highway": "bus_stop",
        "name": "北苑路大屯",
        "name:zh": "北苑路大屯",
        "passenger_information_display": "yes",
        "public_transport": "platform",
        "shelter": "yes",
        "tactile_paving": "yes"
      }
    },
    {
      "type": "node",
      "id": 1977788625,
      "lat": 40.00042,
      "lon": 116.4111398,
      "tags": {
        "bench": "yes",
        "bus": "yes",
        "highway": "bus_stop",
        "name": "北苑路大屯",
        "name:zh": "北苑路大屯",
        "passenger_information_display": "yes",
        "public_transport": "platform",
        "shelter": "yes"
      }
    },
    {
      "type": "node",
      "id": 1977788631,
      "lat": 40.0002499,
      "lon": 116.41129,
      "tags": {
        "bus": "yes",
        "name": "北苑路大屯",
        "name:zh": "北苑路大屯",
        "public_transport": "stop_position"
      }
    },
    {
      "type": "node",
      "id": 1977788637,
      "lat": 40.0004204,
      "lon": 116.4112794,
      "tags": {
        "bus": "yes",
        "name": "北苑路大屯",
        "name:zh": "北苑路大屯",
        "public_transport": "stop_position"
      }
    },
    {
      "type": "node",
      "id": 2161966872,
      "lat": 40.0103599,
      "lon": 116.3879279,
      "tags": {
        "amenity": "toilets"
      }
    },
    {
      "type": "node",
      "id": 2161966875,
      "lat": 40.015089,
      "lon": 116.3941721,
      "tags": {
        "amenity": "toilets"
      }
    },
    {
      "type": "node",
      "id": 2161966938,
      "lat": 40.0160442,
      "lon": 116.3927559,
      "tags": {
        "amenity": "toilets"
      }
    },
    {
      "type": "node",
      "id": 2185439889,
      "lat": 40.0003503,
      "lon": 116.3793811,
      "tags": {
        "amenity": "bank",
        "brand": "中国农业银行",
        "brand:en": "Agricultural Bank of China",
        "brand:wikidata": "Q26298",
        "brand:wikipedia": "en:Agricultural Bank of China",
        "name": "中国农业银行",
        "name:en": "Agricultural Bank of China"
      }
    },
    {
      "type": "node",
      "id": 2185439896,
      "lat": 40.0001201,
      "lon": 116.3708781,
      "tags": {
        "amenity": "restaurant",
        "name": "大鸭梨",
        "name:zh": "大鸭梨",
        "name:zh-Hans": "大鸭梨",
        "name:zh-Hant": "大鴨梨",
        "opening_hours": "PH,Mo-Su 09:30-21:30"
      }
    },
    {
      "type": "node",
      "id": 2185477854,
      "lat": 39.996191,
      "lon": 116.3775035,
      "tags": {
        "name": "社区菜市场",
        "name:zh": "社区菜市场",
        "name:zh-Hans": "社区菜市场",
        "name:zh-Hant": "社區菜市場",
        "shop": "convenience"
      }
    },
    {
      "type": "node",
      "id": 2313142929,
      "lat": 40.0103464,
      "lon": 116.3846819,
      "tags": {
        "amenity": "toilets"
      }
    },
    {
      "type": "node",
      "id": 2358606007,
      "lat": 39.9938553,
      "lon": 116.3952036,
      "tags": {
        "amenity": "bank",
        "brand": "中信银行",
        "brand:en": "China CITIC Bank",
        "brand:wikidata": "Q38960",
        "brand:wikipedia": "en:China CITIC Bank",
        "brand:zh": "中信银行",
        "name": "中信银行",
        "name:en": "China CITIC Bank",
        "name:zh": "中信银行",
        "operator": "中信银行"
      }
    },
    {
      "type": "node",
      "id": 2358606079,
      "lat": 39.9948567,
      "lon": 116.3946509,
      "tags": {
        "bus": "yes",
        "name": "北辰东路",
        "name:zh": "北辰东路",
        "public_transport": "stop_position"
      }
    },
    {
      "type": "node",
      "id": 2358606080,
      "lat": 39.9955715,
      "lon": 116.3944478,
      "tags": {
        "bus": "yes",
        "name": "北辰东路",
        "name:zh": "北辰东路",
        "public_transport": "stop_position"
      }
    },
    {
      "type": "node",
      "id": 2358606082,
      "lat": 39.9923141,
      "lon": 116.3946051,
      "tags": {
        "bus": "yes",
        "name": "国家体育场东（鸟巢）",
        "name:zh": "国家体育场东（鸟巢）",
        "public_transport": "stop_position"
      }
    },
    {
      "type": "node",
      "id": 2358611087,
      "lat": 39.991197,
      "lon": 116.3809686,
      "tags": {
        "bus": "yes",
        "name": "北辰西桥北",
        "name:zh": "北辰西桥北",
        "public_transport": "stop_position"
      }
    },
    {
      "type": "node",
      "id": 2463550014,
      "lat": 40.0014787,
      "lon": 116.3948338,
      "tags": {
        "amenity": "restaurant",
        "name": "金疆西域食府"
      }
    },
    {
      "type": "node",
      "id": 2463551623,
      "lat": 39.9993472,
      "lon": 116.3876918,
      "tags": {
        "name": "天虹百货",
        "name:zh": "天虹百货",
        "name:zh-Hans": "天虹百货",
        "name:zh-Hant": "天虹百货",
        "shop": "mall"
      }
    },
    {
      "type": "node",
      "id": 2494625239,
      "lat": 39.9964932,
      "lon": 116.3748762,
      "tags": {
        "amenity": "restaurant",
        "name": "金凤呈祥",
        "name:zh": "金凤呈祥",
        "name:zh-Hans": "金凤呈祥",
        "name:zh-Hant": "金鳳呈祥"
      }
    },
    {
      "type": "node",
      "id": 2494625240,
      "lat": 39.9957863,
      "lon": 116.3724753,
      "tags": {
        "name": "邻奥嘉苑宾馆",
        "name:zh": "邻奥嘉苑宾馆",
        "name:zh-Hans": "邻奥嘉苑宾馆",
        "name:zh-Hant": "鄰奧嘉苑飯店",
        "tourism": "hotel"
      }
    },
    {
      "type": "node",
      "id": 2494900393,
      "lat": 39.9992412,
      "lon": 116.3814352,
      "tags": {
        "amenity": "bank",
        "brand": "中国银行",
        "brand:en": "Bank of China",
        "brand:wikidata": "Q790068",
        "brand:wikipedia": "en:Bank of China",
        "brand:zh": "中国银行",
        "name": "中国银行",
        "name:en": "Bank of China",
        "name:zh": "中国银行"
      }
    },
    {
      "type": "node",
      "id": 2494901876,
      "lat": 39.999103,
      "lon": 116.3816233,
      "tags": {
        "amenity": "bank",
        "brand": "中国民生银行",
        "brand:en": "China Minsheng Bank",
        "brand:wikidata": "Q911543",
        "brand:wikipedia": "en:China Minsheng Bank",
        "brand:zh": "中国民生银行",
        "name": "中国民生银行",
        "name:en": "China Minsheng Bank",
        "name:zh": "中国民生银行"
      }
    },
    {
      "type": "node",
      "id": 2494902783,
      "lat": 39.9987107,
      "lon": 116.3815738,
      "tags": {
        "amenity": "bank",
        "brand": "北京银行",
        "brand:en": "Bank of Beijing",
        "brand:wikidata": "Q39146",
        "brand:wikipedia": "zh:北京銀行",
        "brand:zh": "北京银行",
        "name": "北京银行",
        "name:en": "Bank of Beijing",
        "name:zh": "北京银行"
      }
    },
    {
      "type": "node",
      "id": 2513662699,
      "lat": 39.9872464,
      "lon": 116.396502,
      "tags": {
        "bus": "yes",
        "name": "亚运村",
        "name:zh": "亚运村",
        "public_transport": "stop_position"
      }
    },
    {
      "type": "node",
      "id": 2513662700,
      "lat": 39.9873303,
      "lon": 116.3964934,
      "tags": {
        "bus": "yes",
        "highway": "bus_stop",
        "name": "亚运村",
        "name:zh": "亚运村",
        "public_transport": "platform"
      }
    },
    {
      "type": "node",
      "id": 2531844206,
      "lat": 40.0070965,
      "lon": 116.3752205,
      "tags": {
        "amenity": "restaurant",
        "name": "眉州东坡酒楼",
        "name:zh": "眉州东坡酒楼",
        "name:zh-Hans": "眉州东坡酒楼",
        "name:zh-Hant": "眉州東坡酒樓"
      }
    },
    {
      "type": "node",
      "id": 2621160949,
      "lat": 40.000083,
      "lon": 116.371361,
      "tags": {
        "amenity": "restaurant",
        "name": "关圣羊杂汤",
        "name:zh": "关圣羊杂汤",
        "name:zh-Hans": "关圣羊杂汤",
        "name:zh-Hant": "關聖羊雜湯"
      }
    },
    {
      "type": "node",
      "id": 2621160952,
      "lat": 40.0001073,
      "lon": 116.3719594,
      "tags": {
        "name": "时光漫步酒店",
        "name:zh": "时光漫步酒店",
        "name:zh-Hans": "时光漫步酒店",
        "name:zh-Hant": "時光漫步飯店",
        "tourism": "hotel"
      }
    },
    {
      "type": "node",
      "id": 2621160956,
      "lat": 40.0006744,
      "lon": 116.372394,
      "tags": {
        "amenity": "restaurant",
        "name": "西区餐厅",
        "name:zh": "西区餐厅",
        "name:zh-Hans": "西区餐厅",
        "name:zh-Hant": "西區餐廳"
      }
    },
    {
      "type": "node",
      "id": 2621160958,
      "lat": 40.0000724,
      "lon": 116.3781232,
      "tags": {
        "shop": "convenience"
      }
    },
    {
      "type": "node",
      "id": 2735715763,
      "lat": 40.0001489,
      "lon": 116.3724184,
      "tags": {
        "amenity": "restaurant",
        "name": "沙县小吃",
        "name:zh": "沙县小吃",
        "name:zh-Hans": "沙县小吃",
        "name:zh-Hant": "沙縣小吃"
      }
    },
    {
      "type": "node",
      "id": 2738678606,
      "lat": 40.002978,
      "lon": 116.4114401,
      "tags": {
        "amenity": "restaurant",
        "name": "马大胡子食府"
      }
    },
    {
      "type": "node",
      "id": 2738733818,
      "lat": 40.0073916,
      "lon": 116.4110287,
      "tags": {
        "amenity": "fast_food",
        "brand": "肯德基",
        "brand:en": "KFC",
        "brand:wikidata": "Q524757",
        "brand:wikipedia": "zh:肯德基",
        "brand:zh": "肯德基",
        "cuisine": "chicken",
        "name": "肯德基",
        "name:en": "KFC",
        "name:zh": "肯德基",
        "name:zh-Latn-pinyin": "Kěn Dé Jī",
        "takeaway": "yes"
      }
    },
    {
      "type": "node",
      "id": 2738733821,
      "lat": 40.007176,
      "lon": 116.411072,
      "tags": {
        "name": "家和物美",
        "shop": "supermarket"
      }
    },
    {
      "type": "node",
      "id": 2738733823,
      "lat": 40.0075209,
      "lon": 116.409727,
      "tags": {
        "amenity": "restaurant",
        "name": "阿森鲍鱼"
      }
    },
    {
      "type": "node",
      "id": 2742116952,
      "lat": 40.003384,
      "lon": 116.409318,
      "tags": {
        "name": "金泉广场",
        "shop": "mall"
      }
    },
    {
      "type": "node",
      "id": 2742133730,
      "lat": 39.99846,
      "lon": 116.39004,
      "tags": {
        "amenity": "fast_food",
        "brand": "庆丰包子铺",
        "brand:en": "Qingfeng Steamed Dumpling Shop",
        "brand:wikidata": "Q24841010",
        "brand:wikipedia": "zh:庆丰包子铺",
        "brand:zh": "庆丰包子铺",
        "cuisine": "chinese",
        "name": "庆丰包子铺",
        "name:en": "Qingfeng Steamed Dumpling Shop",
        "name:zh": "庆丰包子铺",
        "takeaway": "yes"
      }
    },
    {
      "type": "node",
      "id": 2742289537,
      "lat": 39.996257,
      "lon": 116.378796,
      "tags": {
        "amenity": "bank",
        "brand": "中国工商银行",
        "brand:en": "Industrial and Commercial Bank of China",
        "brand:wikidata": "Q26463",
        "brand:wikipedia": "en:Industrial and Commercial Bank of China",
        "brand:zh": "中国工商银行",
        "name": "中国工商银行",
        "name:en": "Industrial and Commercial Bank of China",
        "name:zh": "中国工商银行"
      }
    },
    {
      "type": "node",
      "id": 2742292040,
      "lat": 39.996166,
      "lon": 116.3764865,
      "tags": {
        "amenity": "bank",
        "brand": "中国建设银行",
        "brand:en": "China Construction Bank",
        "brand:wikidata": "Q26299",
        "brand:wikipedia": "en:China Construction Bank",
        "brand:zh": "中国建设银行",
        "name": "中国建设银行",
        "name:en": "China Construction Bank",
        "name:zh": "中国建设银行"
      }
    },
    {
      "type": "node",
      "id": 2743781508,
      "lat": 40.000225,
      "lon": 116.377933,
      "tags": {
        "name": "好邻居便利店",
        "name:en": "Good Neighbors",
        "name:zh": "好邻居便利店",
        "name:zh-Hans": "好邻居便利店",
        "name:zh-Hant": "好鄰居便利商店",
        "shop": "convenience"
      }
    },
    {
      "type": "node",
      "id": 2744627048,
      "lat": 40.000864,
      "lon": 116.399334,
      "tags": {
        "amenity": "restaurant",
        "name": "无名居"
      }
    },
    {
      "type": "node",
      "id": 2751833460,
      "lat": 39.9999918,
      "lon": 116.3697782,
      "tags": {
        "amenity": "fast_food",
        "name": "沙县小吃",
        "name:zh": "沙县小吃",
        "name:zh-Hans": "沙县小吃",
        "name:zh-Hant": "沙縣小吃"
      }
    },
    {
      "type": "node",
      "id": 2753161499,
      "lat": 39.999888,
      "lon": 116.369868,
      "tags": {
        "amenity": "restaurant",
        "name": "巫山烤全鱼",
        "name:zh": "巫山烤全鱼",
        "name:zh-Hans": "巫山烤全鱼",
        "name:zh-Hant": "巫山烤全魚"
      }
    },
    {
      "type": "node",
      "id": 2753471007,
      "lat": 39.9987169,
      "lon": 116.3879444,
      "tags": {
        "name": "新奥购物中心",
        "name:zh": "新奥购物中心",
        "name:zh-Hans": "新奥购物中心",
        "name:zh-Hant": "新奧購物中心",
        "shop": "mall"
      }
    },
    {
      "type": "node",
      "id": 2753505228,
      "lat": 39.9980219,
      "lon": 116.3857168,
      "tags": {
        "amenity": "parking",
        "name": "新奥购物中心停车场",
        "name:zh": "新奥购物中心停车场",
        "name:zh-Hans": "新奥购物中心停车场",
        "name:zh-Hant": "新奧購物中心停車場"
      }
    },
    {
      "type": "node",
      "id": 2753843451,
      "lat": 40.014818,
      "lon": 116.391028,
      "tags": {
        "amenity": "toilets"
      }
    },
    {
      "type": "node",
      "id": 2753963177,
      "lat": 40.0076676,
      "lon": 116.3853305,
      "tags": {
        "amenity": "toilets"
      }
    },
    {
      "type": "node",
      "id": 2782538673,
      "lat": 40.000958,
      "lon": 116.400404,
      "tags": {
        "amenity": "bank",
        "brand": "中国农业银行",
        "brand:en": "Agricultural Bank of China",
        "brand:wikidata": "Q26298",
        "brand:wikipedia": "en:Agricultural Bank of China",
        "brand:zh": "中国农业银行",
        "name": "中国农业银行",
        "name:en": "Agricultural Bank of China",
        "name:zh": "中国农业银行"
      }
    },
    {
      "type": "node",
      "id": 2782538886,
      "lat": 40.0015853,
      "lon": 116.4025232,
      "tags": {
        "amenity": "bank",
        "brand": "平安银行",
        "brand:en": "Ping An Bank",
        "brand:wikidata": "Q7195659",
        "brand:wikipedia": "zh:平安银行",
        "brand:zh": "平安银行",
        "name": "平安银行",
        "name:en": "Ping An Bank",
        "name:zh": "平安银行"
      }
    },
    {
      "type": "node",
      "id": 2782539007,
      "lat": 40.0018216,
      "lon": 116.4008492,
      "tags": {
        "amenity": "bank",
        "brand": "兴业银行",
        "brand:en": "Industrial Bank",
        "brand:wikidata": "Q1410821",
        "brand:wikipedia": "zh:兴业银行",
        "brand:zh": "兴业银行",
        "name": "兴业银行",
        "name:en": "Industrial Bank",
        "name:zh": "兴业银行"
      }
    },
    {
      "type": "node",
      "id": 2782539934,
      "lat": 40.00178,
      "lon": 116.409523,
      "tags": {
        "name": "金海湾酒店",
        "tourism": "hotel"
      }
    },
    {
      "type": "node",
      "id": 2783184689,
      "lat": 40.0013754,
      "lon": 116.395121,
      "tags": {
        "amenity": "bank",
        "brand": "华夏银行",
        "brand:en": "Huaxia Bank",
        "brand:wikidata": "Q1595443",
        "brand:wikipedia": "en:Huaxia Bank",
        "brand:zh": "华夏银行",
        "name": "华夏银行",
        "name:en": "Huaxia Bank",
        "name:zh": "华夏银行"
      }
    },
    {
      "type": "node",
      "id": 2783247372,
      "lat": 40.001484,
      "lon": 116.398945,
      "tags": {
        "amenity": "bank",
        "brand": "中信银行",
        "brand:en": "China CITIC Bank",
        "brand:wikidata": "Q38960",
        "brand:wikipedia": "en:China CITIC Bank",
        "brand:zh": "中信银行",
        "name": "中信银行",
        "name:en": "China CITIC Bank",
        "name:zh": "中信银行",
        "opening_hours": "Mo-Fr 09:00-17:30; Sa 09:00-17:00"
      }
    },
    {
      "type": "node",
      "id": 2783248261,
      "lat": 40.0020819,
      "lon": 116.3980893,
      "tags": {
        "amenity": "bank",
        "brand": "中国工商银行",
        "brand:en": "Industrial and Commercial Bank of China",
        "brand:wikidata": "Q26463",
        "brand:wikipedia": "en:Industrial and Commercial Bank of China",
        "brand:zh": "中国工商银行",
        "name": "中国工商银行",
        "name:en": "Industrial and Commercial Bank of China",
        "name:zh": "中国工商银行"
      }
    },
    {
      "type": "node",
      "id": 2783249652,
      "lat": 40.002331,
      "lon": 116.401063,
      "tags": {
        "amenity": "bank",
        "brand": "北京银行",
        "brand:en": "Bank of Beijing",
        "brand:wikidata": "Q39146",
        "brand:wikipedia": "zh:北京銀行",
        "brand:zh": "北京银行",
        "name": "北京银行",
        "name:en": "Bank of Beijing",
        "name:zh": "北京银行",
        "opening_hours": "Mo-Su 09:00-17:30"
      }
    },
    {
      "type": "node",
      "id": 2783250673,
      "lat": 40.003427,
      "lon": 116.401058,
      "tags": {
        "amenity": "fast_food",
        "brand": "麦当劳",
        "brand:en": "McDonald's",
        "brand:wikidata": "Q38076",
        "brand:wikipedia": "zh:麦当劳",
        "brand:zh": "麦当劳",
        "brand:zh-Hans": "麦当劳",
        "cuisine": "burger",
        "name": "麦当劳",
        "name:en": "McDonald's",
        "name:zh": "麦当劳",
        "name:zh-Hans": "麦当劳",
        "name:zh-Latn-pinyin": "Màidāngláo",
        "takeaway": "yes",
        "website": "http://mcdonalds.com.cn"
      }
    },
    {
      "type": "node",
      "id": 2783251084,
      "lat": 40.004712,
      "lon": 116.402217,
      "tags": {
        "amenity": "bank",
        "brand": "中国银行",
        "brand:en": "Bank of China",
        "brand:wikidata": "Q790068",
        "brand:wikipedia": "en:Bank of China",
        "brand:zh": "中国银行",
        "name": "中国银行",
        "name:en": "Bank of China",
        "name:zh": "中国银行"
      }
    },
    {
      "type": "node",
      "id": 2783251213,
      "lat": 40.00498,
      "lon": 116.402156,
      "tags": {
        "amenity": "bank",
        "name": "北京农商银行"
      }
    },
    {
      "type": "node",
      "id": 2783251751,
      "lat": 40.006277,
      "lon": 116.402217,
      "tags": {
        "amenity": "cafe",
        "name": "上岛咖啡"
      }
    },
    {
      "type": "node",
      "id": 2783252619,
      "lat": 40.007176,
      "lon": 116.402278,
      "tags": {
        "brand": "如家酒店",
        "brand:en": "Home Inn",
        "brand:wikidata": "Q4980954",
        "brand:wikipedia": "zh:首旅如家酒店集团",
        "brand:zh": "如家酒店",
        "name": "如家快捷酒店",
        "name:en": "Home Inn",
        "name:zh": "如家酒店",
        "tourism": "hotel"
      }
    },
    {
      "type": "node",
      "id": 2783253624,
      "lat": 40.001791,
      "lon": 116.369309,
      "tags": {
        "amenity": "bank",
        "name": "浦东发展银行",
        "name:zh": "浦东发展银行",
        "name:zh-Hans": "浦东发展银行",
        "name:zh-Hant": "浦東發展銀行"
      }
    },
    {
      "type": "node",
      "id": 2783255458,
      "lat": 40.003193,
      "lon": 116.369126,
      "tags": {
        "brand": "超市发",
        "brand:en": "CSF Market",
        "brand:wikidata": "Q106844410",
        "brand:zh": "超市发",
        "name": "超市发",
        "name:en": "CSF Market",
        "name:zh": "超市发",
        "name:zh-Hans": "超市发",
        "name:zh-Hant": "超市發",
        "shop": "supermarket"
      }
    },
    {
      "type": "node",
      "id": 2783258344,
      "lat": 40.003305,
      "lon": 116.369126,
      "tags": {
        "amenity": "cafe",
        "name": "上岛咖啡",
        "name:zh": "上岛咖啡",
        "name:zh-Hans": "上岛咖啡",
        "name:zh-Hant": "上島咖啡"
      }
    },
    {
      "type": "node",
      "id": 2783263301,
      "lat": 40.007257,
      "lon": 116.375218,
      "tags": {
        "amenity": "bank",
        "brand": "中国工商银行",
        "brand:en": "Industrial and Commercial Bank of China",
        "brand:wikidata": "Q26463",
        "brand:wikipedia": "en:Industrial and Commercial Bank of China",
        "brand:zh": "中国工商银行",
        "name": "中国工商银行",
        "name:en": "Industrial and Commercial Bank of China",
        "name:zh": "中国工商银行"
      }
    },
    {
      "type": "node",
      "id": 2783264872,
      "lat": 40.0076711,
      "lon": 116.3752235,
      "tags": {
        "amenity": "cafe",
        "brand": "星巴克",
        "brand:en": "Starbucks",
        "brand:wikidata": "Q37158",
        "brand:wikipedia": "zh:星巴克",
        "brand:zh": "星巴克",
        "cuisine": "coffee_shop",
        "internet_access": "wlan",
        "name": "星巴克",
        "name:en": "Starbucks",
        "name:zh": "星巴克",
        "name:zh-Latn-pinyin": "Xīngbākè",
        "takeaway": "yes",
        "website": "https://www.starbucks.com.cn/"
      }
    },
    {
      "type": "node",
      "id": 2783266444,
      "lat": 40.008095,
      "lon": 116.375776,
      "tags": {
        "amenity": "bank",
        "brand": "中信银行",
        "brand:en": "China CITIC Bank",
        "brand:wikidata": "Q38960",
        "brand:wikipedia": "en:China CITIC Bank",
        "brand:zh": "中信银行",
        "name": "中信银行",
        "name:en": "China CITIC Bank",
        "name:zh": "中信银行"
      }
    },
    {
      "type": "node",
      "id": 2783297002,
      "lat": 40.000948,
      "lon": 116.402959,
      "tags": {
        "amenity": "bank",
        "brand": "中国银行",
        "brand:en": "Bank of China",
        "brand:wikidata": "Q790068",
        "brand:wikipedia": "en:Bank of China",
        "brand:zh": "中国银行",
        "name": "中国银行",
        "name:en": "Bank of China",
        "name:zh": "中国银行",
        "opening_hours": "Mo-Fr 09:00-17:00"
      }
    },
    {
      "type": "node",
      "id": 2783307173,
      "lat": 39.999234,
      "lon": 116.375381,
      "tags": {
        "amenity": "bank",
        "brand": "中国银行",
        "brand:en": "Bank of China",
        "brand:wikidata": "Q790068",
        "brand:wikipedia": "en:Bank of China",
        "brand:zh": "中国银行",
        "name": "中国银行",
        "name:en": "Bank of China",
        "name:zh": "中国银行"
      }
    },
    {
      "type": "node",
      "id": 2783307283,
      "lat": 39.999479,
      "lon": 116.375062,
      "tags": {
        "amenity": "atm",
        "brand": "招商银行",
        "brand:en": "China Merchants Bank",
        "brand:wikidata": "Q1073327",
        "brand:zh": "招商银行",
        "name": "招商银行",
        "name:en": "China Merchants Bank",
        "name:zh": "招商银行",
        "name:zh-Hans": "招商银行",
        "name:zh-Hant": "招商銀行",
        "operator": "招商银行",
        "operator:wikidata": "Q1073327"
      }
    },
    {
      "type": "node",
      "id": 2783307382,
      "lat": 40.0002086,
      "lon": 116.3774858,
      "tags": {
        "amenity": "atm",
        "brand": "招商银行",
        "brand:en": "China Merchants Bank",
        "brand:wikidata": "Q1073327",
        "brand:zh": "招商银行",
        "name": "招商银行",
        "name:en": "China Merchants Bank",
        "name:zh": "招商银行",
        "operator": "招商银行",
        "operator:wikidata": "Q1073327"
      }
    },
    {
      "type": "node",
      "id": 2787221711,
      "lat": 40.002941,
      "lon": 116.369285,
      "tags": {
        "amenity": "restaurant",
        "name": "蝎子李",
        "name:zh": "蝎子李",
        "name:zh-Hans": "蝎子李",
        "name:zh-Hant": "蠍子李"
      }
    },
    {
      "type": "node",
      "id": 2787238072,
      "lat": 40.000704,
      "lon": 116.372131,
      "tags": {
        "amenity": "cafe",
        "name": "Mi Coffee",
        "name:en": "Mi Coffee"
      }
    },
    {
      "type": "node",
      "id": 2791842470,
      "lat": 40.0007195,
      "lon": 116.3966584,
      "tags": {
        "amenity": "bank",
        "name": "邮政储蓄"
      }
    },
    {
      "type": "node",
      "id": 2798470801,
      "lat": 39.9999389,
      "lon": 116.4011088,
      "tags": {
        "amenity": "hospital",
        "healthcare": "hospital",
        "healthcare:speciality": "plastic_surgery;dentist",
        "name": "北京丽都医疗美容医院"
      }
    },
    {
      "type": "node",
      "id": 2818438201,
      "lat": 39.9961786,
      "lon": 116.3770122,
      "tags": {
        "amenity": "pharmacy",
        "brand": "同仁堂",
        "brand:en": "TongRenTang Pharmacy",
        "brand:wikidata": "Q842099",
        "brand:wikipedia": "en:Tong Ren Tang",
        "brand:zh": "同仁堂",
        "healthcare": "pharmacy",
        "name": "同仁堂",
        "name:en": "TongRenTang Pharmacy",
        "name:zh": "同仁堂"
      }
    },
    {
      "type": "node",
      "id": 2819845701,
      "lat": 39.999315,
      "lon": 116.389632,
      "tags": {
        "amenity": "restaurant",
        "name": "顺口溜"
      }
    },
    {
      "type": "node",
      "id": 2819866502,
      "lat": 39.998756,
      "lon": 116.387358,
      "tags": {
        "amenity": "fast_food",
        "brand": "肯德基",
        "brand:en": "KFC",
        "brand:wikidata": "Q524757",
        "brand:wikipedia": "zh:肯德基",
        "brand:zh": "肯德基",
        "cuisine": "chicken",
        "name": "肯德基",
        "name:en": "KFC",
        "name:zh": "肯德基",
        "name:zh-Latn-pinyin": "Kěn Dé Jī",
        "takeaway": "yes"
      }
    },
    {
      "type": "node",
      "id": 2819909701,
      "lat": 39.99989,
      "lon": 116.387486,
      "tags": {
        "name": "B口",
        "name:zh": "B口",
        "name:zh-Hans": "B口",
        "name:zh-Hant": "B口",
        "railway": "subway_entrance"
      }
    },
    {
      "type": "node",
      "id": 2820157301,
      "lat": 40.000039,
      "lon": 116.386242,
      "tags": {
        "name": "A口",
        "name:zh": "A口",
        "name:zh-Hans": "A口",
        "name:zh-Hant": "A口",
        "railway": "subway_entrance"
      }
    },
    {
      "type": "node",
      "id": 2852183254,
      "lat": 40.0069693,
      "lon": 116.4116542,
      "tags": {
        "amenity": "restaurant",
        "name": "我们的餐厅"
      }
    },
    {
      "type": "node",
      "id": 2852183259,
      "lat": 40.006825,
      "lon": 116.4117388,
      "tags": {
        "amenity": "restaurant",
        "name": "重庆三香鱼"
      }
    },
    {
      "type": "node",
      "id": 2854280901,
      "lat": 40.006547,
      "lon": 116.409867,
      "tags": {
        "amenity": "restaurant",
        "name": "龙娃碳烤肉"
      }
    },
    {
      "type": "node",
      "id": 2854308908,
      "lat": 40.0020064,
      "lon": 116.4021686,
      "tags": {
        "amenity": "hospital",
        "healthcare": "hospital",
        "name": "北大口腔医院第二门诊部"
      }
    },
    {
      "type": "node",
      "id": 2854308909,
      "lat": 40.0017326,
      "lon": 116.4021378,
      "tags": {
        "amenity": "bank",
        "brand": "中国民生银行",
        "brand:en": "China Minsheng Bank",
        "brand:wikidata": "Q911543",
        "brand:wikipedia": "en:China Minsheng Bank",
        "brand:zh": "中国民生银行",
        "name": "中国民生银行",
        "name:en": "China Minsheng Bank",
        "name:zh": "中国民生银行"
      }
    },
    {
      "type": "node",
      "id": 2854308910,
      "lat": 40.001547,
      "lon": 116.4001579,
      "tags": {
        "amenity": "restaurant",
        "brand": "杨国福麻辣烫",
        "brand:en": "Yangguofu Spicy Hot Pot",
        "brand:wikidata": "Q108210209",
        "brand:zh": "杨国福麻辣烫",
        "cuisine": "chinese;malatang",
        "name": "杨国福麻辣烫",
        "name:en": "Yangguofu Spicy Hot Pot",
        "name:zh": "杨国福麻辣烫"
      }
    },
    {
      "type": "node",
      "id": 2854308911,
      "lat": 40.0026814,
      "lon": 116.401041,
      "tags": {
        "amenity": "restaurant",
        "brand": "全聚德",
        "brand:en": "Quanjude",
        "brand:wikidata": "Q3269017",
        "brand:wikipedia": "zh:全聚德",
        "brand:zh": "全聚德",
        "cuisine": "chinese",
        "name": "全聚德",
        "name:en": "Quanjude",
        "name:zh": "全聚德"
      }
    },
    {
      "type": "node",
      "id": 2854308913,
      "lat": 40.003144,
      "lon": 116.4009424,
      "tags": {
        "name": "北京中奥凯富国际酒店",
        "tourism": "hotel"
      }
    },
    {
      "type": "node",
      "id": 2854308914,
      "lat": 40.0036302,
      "lon": 116.4009054,
      "tags": {
        "name": "华汇华辰超市",
        "shop": "supermarket"
      }
    },
    {
      "type": "node",
      "id": 2858041001,
      "lat": 40.0002048,
      "lon": 116.4011464,
      "tags": {
        "amenity": "clinic",
        "healthcare": "clinic",
        "healthcare:speciality": "dentist",
        "name": "佳美口腔"
      }
    },
    {
      "type": "node",
      "id": 2859271101,
      "lat": 40.000712,
      "lon": 116.397936,
      "tags": {
        "amenity": "restaurant",
        "name": "太和屋"
      }
    },
    {
      "type": "node",
      "id": 2868282501,
      "lat": 40.00635,
      "lon": 116.409845,
      "tags": {
        "amenity": "restaurant",
        "name": "袁姑妈家常菜"
      }
    },
    {
      "type": "node",
      "id": 2872733101,
      "lat": 39.999542,
      "lon": 116.389685,
      "tags": {
        "amenity": "restaurant",
        "name": "一碗居"
      }
    },
    {
      "type": "node",
      "id": 2919681740,
      "lat": 40.0001588,
      "lon": 116.3759627,
      "tags": {
        "amenity": "restaurant",
        "name": "金兰夜话茶楼",
        "name:zh": "金兰夜话茶楼",
        "name:zh-Hans": "金兰夜话茶楼",
        "name:zh-Hant": "金蘭夜話茶樓"
      }
    },
    {
      "type": "node",
      "id": 2922835904,
      "lat": 40.000202,
      "lon": 116.378045,
      "tags": {
        "amenity": "bank",
        "brand": "中国光大银行",
        "brand:en": "China Everbright Bank",
        "brand:wikidata": "Q10873167",
        "brand:wikipedia": "zh:中国光大银行",
        "brand:zh": "中国光大银行",
        "name": "中国光大银行",
        "name:en": "China Everbright Bank",
        "name:zh": "中国光大银行"
      }
    },
    {
      "type": "node",
      "id": 2926904802,
      "lat": 40.000679,
      "lon": 116.372466,
      "tags": {
        "amenity": "restaurant",
        "name": "和味坊",
        "name:zh": "和味坊",
        "name:zh-Hans": "和味坊",
        "name:zh-Hant": "和味坊"
      }
    },
    {
      "type": "node",
      "id": 2926904803,
      "lat": 40.000202,
      "lon": 116.377637,
      "tags": {
        "amenity": "restaurant",
        "name": "沙县小吃",
        "name:zh": "沙县小吃",
        "name:zh-Hans": "沙县小吃",
        "name:zh-Hant": "沙縣小吃"
      }
    },
    {
      "type": "node",
      "id": 2926924003,
      "lat": 40.000202,
      "lon": 116.377788,
      "tags": {
        "amenity": "bank",
        "brand": "中国光大银行",
        "brand:en": "China Everbright Bank",
        "brand:wikidata": "Q10873167",
        "brand:wikipedia": "zh:中国光大银行",
        "brand:zh": "中国光大银行",
        "name": "中国光大银行",
        "name:en": "China Everbright Bank",
        "name:zh": "中国光大银行"
      }
    },
    {
      "type": "node",
      "id": 2941779307,
      "lat": 39.995961,
      "lon": 116.394932,
      "tags": {
        "amenity": "pharmacy",
        "healthcare": "pharmacy",
        "name": "金象大药房"
      }
    },
    {
      "type": "node",
      "id": 2941803501,
      "lat": 39.996191,
      "lon": 116.394911,
      "tags": {
        "brand": "京客隆",
        "brand:en": "Jingkelong",
        "brand:wikidata": "Q10902027",
        "brand:wikipedia": "en:Jingkelong",
        "brand:zh": "京客隆",
        "name": "京客隆",
        "name:en": "Jingkelong",
        "name:zh": "京客隆",
        "shop": "supermarket"
      }
    },
    {
      "type": "node",
      "id": 2941805802,
      "lat": 39.996717,
      "lon": 116.397336,
      "tags": {
        "amenity": "restaurant",
        "name": "沙县小吃"
      }
    },
    {
      "type": "node",
      "id": 2948739534,
      "lat": 39.993545,
      "lon": 116.409738,
      "tags": {
        "amenity": "restaurant",
        "name": "龙顺园麻辣香锅"
      }
    },
    {
      "type": "node",
      "id": 2948739535,
      "lat": 39.993331,
      "lon": 116.410446,
      "tags": {
        "addr:housenumber": "甲176号",
        "addr:postcode": "100101",
        "addr:street": "北苑路",
        "name": "观唐假日酒店",
        "name:en": "Cathay View Holiday Hotel",
        "name:zh": "观唐假日酒店",
        "name:zh-Latn-pinyin": "Guān Táng Jià Rì Jiǔ Diàn",
        "tourism": "hotel"
      }
    },
    {
      "type": "node",
      "id": 2948740033,
      "lat": 39.993397,
      "lon": 116.405511,
      "tags": {
        "amenity": "restaurant",
        "name": "黑土印象",
        "name:zh": "黑土印象",
        "name:zh-Latn-pinyin": "Hēi Tǔ Yìn Xiàng"
      }
    },
    {
      "type": "node",
      "id": 2948740433,
      "lat": 39.993331,
      "lon": 116.401863,
      "tags": {
        "amenity": "bank",
        "brand": "交通银行",
        "brand:en": "Bank of Communications",
        "brand:wikidata": "Q806680",
        "brand:wikipedia": "en:Bank of Communications",
        "brand:zh": "交通银行",
        "name": "交通银行",
        "name:en": "Bank of Communications",
        "name:zh": "交通银行"
      }
    },
    {
      "type": "node",
      "id": 2948818434,
      "lat": 39.9940588,
      "lon": 116.4101742,
      "tags": {
        "amenity": "restaurant",
        "name": "聚焦鲜牛肉潮汕火锅"
      }
    },
    {
      "type": "node",
      "id": 2948818435,
      "lat": 39.9968506,
      "lon": 116.4022559,
      "tags": {
        "amenity": "fast_food",
        "brand": "麦当劳",
        "brand:en": "McDonald's",
        "brand:wikidata": "Q38076",
        "brand:wikipedia": "zh:麦当劳",
        "brand:zh": "麦当劳",
        "brand:zh-Hans": "麦当劳",
        "cuisine": "burger",
        "name": "麦当劳",
        "name:en": "McDonald's",
        "name:zh": "麦当劳",
        "name:zh-Hans": "麦当劳",
        "name:zh-Latn-pinyin": "Kěn Dé Jī",
        "takeaway": "yes"
      }
    },
    {
      "type": "node",
      "id": 2948819033,
      "lat": 39.993841,
      "lon": 116.406326,
      "tags": {
        "addr:street": "慧忠路",
        "amenity": "restaurant",
        "cuisine": "chinese",
        "name": "利莹饭庄",
        "name:en": "Liying Restaurant",
        "name:zh": "利莹饭庄",
        "name:zh-Latn-pinyin": "Lì Yíng Fàn Zhuāng"
      }
    },
    {
      "type": "node",
      "id": 2948819433,
      "lat": 39.993857,
      "lon": 116.405532,
      "tags": {
        "brand": "物美",
        "brand:en": "Wumart",
        "brand:wikidata": "Q8039225",
        "brand:wikipedia": "zh:物美商業",
        "brand:zh": "物美",
        "int_name": "Wumart",
        "name": "物美",
        "name:en": "Wumart",
        "name:zh": "物美",
        "name:zh-Latn-pinyin": "Wù Měi",
        "shop": "supermarket"
      }
    },
    {
      "type": "node",
      "id": 2948819434,
      "lat": 40.000564,
      "lon": 116.398044,
      "tags": {
        "amenity": "restaurant",
        "name": "老北京食府"
      }
    },
    {
      "type": "node",
      "id": 2948822133,
      "lat": 40.0003322,
      "lon": 116.4011404,
      "tags": {
        "amenity": "bank",
        "name": "花旗银行"
      }
    },
    {
      "type": "node",
      "id": 2957106334,
      "lat": 39.997211,
      "lon": 116.404524,
      "tags": {
        "amenity": "pharmacy",
        "healthcare": "pharmacy",
        "name": "好的快大药房"
      }
    },
    {
      "type": "node",
      "id": 2957106533,
      "lat": 39.997211,
      "lon": 116.403129,
      "tags": {
        "amenity": "fast_food",
        "brand": "永和大王",
        "brand:en": "Yonghe King",
        "brand:wikidata": "Q8055004",
        "brand:wikipedia": "zh:永和大王",
        "brand:zh": "永和大王",
        "cuisine": "chinese",
        "name": "永和大王",
        "name:en": "Yonghe King",
        "name:zh": "永和大王",
        "name:zh-Latn-pinyin": "Yǒng Hé Dà Wáng",
        "takeaway": "yes"
      }
    },
    {
      "type": "node",
      "id": 2957106539,
      "lat": 39.997638,
      "lon": 116.40079,
      "tags": {
        "amenity": "cafe",
        "name": "绿动元咖啡"
      }
    },
    {
      "type": "node",
      "id": 2957106933,
      "lat": 39.997227,
      "lon": 116.402893,
      "tags": {
        "amenity": "restaurant",
        "brand": "俏江南",
        "name": "俏江南"
      }
    },
    {
      "type": "node",
      "id": 2957128234,
      "lat": 39.997211,
      "lon": 116.404245,
      "tags": {
        "amenity": "restaurant",
        "name": "馅老满"
      }
    },
    {
      "type": "node",
      "id": 2957128235,
      "lat": 39.996915,
      "lon": 116.397893,
      "tags": {
        "amenity": "restaurant",
        "name": "杭州小吃"
      }
    },
    {
      "type": "node",
      "id": 2957128639,
      "lat": 39.99698,
      "lon": 116.398022,
      "tags": {
        "name": "新阳光烟酒超市",
        "shop": "supermarket"
      }
    },
    {
      "type": "node",
      "id": 2957132634,
      "lat": 39.997161,
      "lon": 116.402614,
      "tags": {
        "amenity": "bank",
        "brand": "中国银行",
        "brand:en": "Bank of China",
        "brand:wikidata": "Q790068",
        "brand:wikipedia": "en:Bank of China",
        "brand:zh": "中国银行",
        "name": "中国银行",
        "name:en": "Bank of China",
        "name:zh": "中国银行",
        "name:zh-Latn-pinyin": "Zhōng Guó Yín Háng"
      }
    },
    {
      "type": "node",
      "id": 2957157733,
      "lat": 39.997506,
      "lon": 116.399288,
      "tags": {
        "amenity": "restaurant",
        "name": "京王西北菜"
      }
    },
    {
      "type": "node",
      "id": 2957166933,
      "lat": 39.996734,
      "lon": 116.396928,
      "tags": {
        "amenity": "hospital",
        "healthcare": "hospital",
        "name": "北京朝阳大屯医院"
      }
    },
    {
      "type": "node",
      "id": 2957170433,
      "lat": 39.997095,
      "lon": 116.396842,
      "tags": {
        "amenity": "restaurant",
        "name": "千粥百味家常菜"
      }
    },
    {
      "type": "node",
      "id": 2957172834,
      "lat": 39.997013,
      "lon": 116.396263,
      "tags": {
        "amenity": "restaurant",
        "name": "太婆天府山珍"
      }
    },
    {
      "type": "node",
      "id": 2957172835,
      "lat": 39.996948,
      "lon": 116.395254,
      "tags": {
        "name:en": "Good Neighbors",
        "name:zh": "好邻居便利店",
        "shop": "convenience"
      }
    },
    {
      "type": "node",
      "id": 2957172836,
      "lat": 39.996931,
      "lon": 116.394846,
      "tags": {
        "amenity": "restaurant",
        "name": "黄门老灶火锅"
      }
    },
    {
      "type": "node",
      "id": 2957175334,
      "lat": 39.996948,
      "lon": 116.395061,
      "tags": {
        "amenity": "restaurant",
        "name": "驴肉馆"
      }
    },
    {
      "type": "node",
      "id": 2957175335,
      "lat": 39.996602,
      "lon": 116.39504,
      "tags": {
        "amenity": "restaurant",
        "cuisine": "dumplings",
        "name": "熊小胖饺子家常菜"
      }
    },
    {
      "type": "node",
      "id": 2957175733,
      "lat": 39.996948,
      "lon": 116.395662,
      "tags": {
        "amenity": "restaurant",
        "name": "爆肚元"
      }
    },
    {
      "type": "node",
      "id": 2977431836,
      "lat": 40.001846,
      "lon": 116.401005,
      "tags": {
        "name": "日购商城",
        "shop": "mall"
      }
    },
    {
      "type": "node",
      "id": 2979132733,
      "lat": 40.000613,
      "lon": 116.396348,
      "tags": {
        "name": "喆啡酒店",
        "tourism": "hotel"
      }
    },
    {
      "type": "node",
      "id": 2980467834,
      "lat": 40.000038,
      "lon": 116.371651,
      "tags": {
        "name": "烟酒茶超市",
        "name:zh": "烟酒茶超市",
        "name:zh-Hans": "烟酒茶超市",
        "name:zh-Hant": "烟酒茶量販店",
        "shop": "convenience"
      }
    },
    {
      "type": "node",
      "id": 2980474933,
      "lat": 40.000071,
      "lon": 116.371779,
      "tags": {
        "amenity": "clinic",
        "healthcare": "clinic",
        "healthcare:speciality": "dentist",
        "name": "长村口腔",
        "name:zh": "长村口腔",
        "name:zh-Hans": "长村口腔",
        "name:zh-Hant": "長村口腔"
      }
    },
    {
      "type": "node",
      "id": 2980476933,
      "lat": 40.000104,
      "lon": 116.372209,
      "tags": {
        "information": "office",
        "name": "中国国旅",
        "name:zh": "中国国旅",
        "name:zh-Hans": "中国国旅",
        "name:zh-Hant": "中國國旅",
        "tourism": "information"
      }
    },
    {
      "type": "node",
      "id": 2980483533,
      "lat": 40.000136,
      "lon": 116.372552,
      "tags": {
        "amenity": "fast_food",
        "name": "五谷煎饼",
        "name:zh": "五谷煎饼",
        "name:zh-Hans": "五谷煎饼",
        "name:zh-Hant": "五穀煎餅"
      }
    },
    {
      "type": "node",
      "id": 2981984634,
      "lat": 39.995797,
      "lon": 116.372681,
      "tags": {
        "amenity": "restaurant",
        "name": "成都美食",
        "name:zh": "成都美食",
        "name:zh-Hans": "成都美食",
        "name:zh-Hant": "成都美食"
      }
    },
    {
      "type": "node",
      "id": 2981986533,
      "lat": 39.995731,
      "lon": 116.372037,
      "tags": {
        "amenity": "restaurant",
        "name": "合川酒楼",
        "name:zh": "合川酒楼",
        "name:zh-Hans": "合川酒楼",
        "name:zh-Hant": "合川酒樓"
      }
    },
    {
      "type": "node",
      "id": 2981992033,
      "lat": 39.998969,
      "lon": 116.370342,
      "tags": {
        "name": "巢源招待所",
        "name:zh": "巢源招待所",
        "name:zh-Hans": "巢源招待所",
        "name:zh-Hant": "巢源招待所",
        "tourism": "hotel"
      }
    },
    {
      "type": "node",
      "id": 2982122634,
      "lat": 39.999742,
      "lon": 116.390147,
      "tags": {
        "amenity": "parking"
      }
    },
    {
      "type": "node",
      "id": 2982153033,
      "lat": 39.998854,
      "lon": 116.390233,
      "tags": {
        "name": "新奥购物中心",
        "shop": "mall"
      }
    },
    {
      "type": "node",
      "id": 2982154333,
      "lat": 39.997539,
      "lon": 116.390362,
      "tags": {
        "amenity": "cafe",
        "name": "TWOSOME+COFFEE"
      }
    },
    {
      "type": "node",
      "id": 2982154833,
      "lat": 39.997769,
      "lon": 116.390233,
      "tags": {
        "amenity": "restaurant",
        "name": "思味浓咖喱屋"
      }
    },
    {
      "type": "node",
      "id": 2982155233,
      "lat": 39.997769,
      "lon": 116.390104,
      "tags": {
        "amenity": "fast_food",
        "brand": "麦当劳",
        "brand:en": "McDonald's",
        "brand:wikidata": "Q38076",
        "brand:wikipedia": "zh:麦当劳",
        "brand:zh": "麦当劳",
        "brand:zh-Hans": "麦当劳",
        "cuisine": "burger",
        "name": "麦当劳",
        "name:en": "McDonald's",
        "name:zh": "麦当劳",
        "name:zh-Hans": "麦当劳",
        "name:zh-Latn-pinyin": "Màidāngláo",
        "takeaway": "yes",
        "website": "http://mcdonalds.com.cn"
      }
    },
    {
      "type": "node",
      "id": 2982156033,
      "lat": 39.997901,
      "lon": 116.390233,
      "tags": {
        "amenity": "restaurant",
        "name": "美食汇美食广场"
      }
    },
    {
      "type": "node",
      "id": 2982156433,
      "lat": 39.997901,
      "lon": 116.390104,
      "tags": {
        "amenity": "restaurant",
        "name": "品奇比萨"
      }
    },
    {
      "type": "node",
      "id": 2982157533,
      "lat": 39.997983,
      "lon": 116.390083,
      "tags": {
        "amenity": "restaurant",
        "name": "回转寿司"
      }
    },
    {
      "type": "node",
      "id": 2982157733,
      "lat": 39.998082,
      "lon": 116.39004,
      "tags": {
        "amenity": "restaurant",
        "cuisine": "hotpot",
        "name": "泡泡火锅"
      }
    },
    {
      "type": "node",
      "id": 2982159033,
      "lat": 39.998032,
      "lon": 116.390233,
      "tags": {
        "amenity": "restaurant",
        "name": "纽约客美式餐厅"
      }
    },
    {
      "type": "node",
      "id": 2982159833,
      "lat": 39.998328,
      "lon": 116.39004,
      "tags": {
        "amenity": "restaurant",
        "name": "拿渡麻辣香锅"
      }
    },
    {
      "type": "node",
      "id": 2982160233,
      "lat": 39.998328,
      "lon": 116.39019,
      "tags": {
        "amenity": "restaurant",
        "cuisine": "dumplings",
        "name": "东方饺子王"
      }
    },
    {
      "type": "node",
      "id": 2982162733,
      "lat": 39.998558,
      "lon": 116.390169,
      "tags": {
        "amenity": "restaurant",
        "name": "华天延吉"
      }
    },
    {
      "type": "node",
      "id": 2982162734,
      "lat": 39.998591,
      "lon": 116.389976,
      "tags": {
        "amenity": "restaurant",
        "name": "利易法式铁板主题餐厅"
      }
    },
    {
      "type": "node",
      "id": 2982167733,
      "lat": 39.998674,
      "lon": 116.390147,
      "tags": {
        "amenity": "restaurant",
        "name": "护国寺小吃店"
      }
    },
    {
      "type": "node",
      "id": 2982167734,
      "lat": 39.99869,
      "lon": 116.390233,
      "tags": {
        "amenity": "restaurant",
        "name": "香妃烤鸡"
      }
    },
    {
      "type": "node",
      "id": 2982167735,
      "lat": 39.999232,
      "lon": 116.389825,
      "tags": {
        "amenity": "restaurant",
        "name": "港品元素"
      }
    },
    {
      "type": "node",
      "id": 2982170233,
      "lat": 39.998904,
      "lon": 116.390083,
      "tags": {
        "amenity": "cafe",
        "name": "咖啡工厂"
      }
    },
    {
      "type": "node",
      "id": 2982170535,
      "lat": 39.999479,
      "lon": 116.389589,
      "tags": {
        "amenity": "restaurant",
        "brand": "呷哺呷哺",
        "brand:en": "Xiabuxiabu",
        "brand:wikidata": "Q10866036",
        "brand:wikipedia": "zh:呷哺呷哺",
        "brand:zh": "呷哺呷哺",
        "cuisine": "chinese",
        "name": "呷哺呷哺",
        "name:en": "Xiabuxiabu",
        "name:zh": "呷哺呷哺"
      }
    },
    {
      "type": "node",
      "id": 2982172133,
      "lat": 39.999052,
      "lon": 116.38989,
      "tags": {
        "amenity": "fast_food",
        "brand": "赛百味",
        "brand:en": "Subway",
        "brand:wikidata": "Q244457",
        "brand:wikipedia": "zh:赛百味",
        "brand:zh": "赛百味",
        "cuisine": "sandwich",
        "name": "赛百味",
        "name:en": "Subway",
        "name:zh": "赛百味",
        "takeaway": "yes"
      }
    },
    {
      "type": "node",
      "id": 2982173433,
      "lat": 39.999052,
      "lon": 116.39004,
      "tags": {
        "amenity": "restaurant",
        "name": "优源"
      }
    },
    {
      "type": "node",
      "id": 2982173434,
      "lat": 39.999265,
      "lon": 116.390018,
      "tags": {
        "amenity": "atm",
        "brand": "北京农商银行",
        "brand:en": "Beijing Rural Commercial Bank",
        "brand:wikidata": "Q10902046",
        "brand:zh": "北京农商银行",
        "name": "北京农商银行",
        "operator": "北京农商银行",
        "operator:wikidata": "Q10902046"
      }
    },
    {
      "type": "node",
      "id": 2982174633,
      "lat": 39.99915,
      "lon": 116.389847,
      "tags": {
        "amenity": "restaurant",
        "name": "全面金典"
      }
    },
    {
      "type": "node",
      "id": 2982177833,
      "lat": 39.99938,
      "lon": 116.389954,
      "tags": {
        "amenity": "restaurant",
        "name": "合利屋"
      }
    },
    {
      "type": "node",
      "id": 2982182334,
      "lat": 40.000087,
      "lon": 116.39004,
      "tags": {
        "name": "天虹百货",
        "shop": "mall"
      }
    },
    {
      "type": "node",
      "id": 3006978933,
      "lat": 40.0201514,
      "lon": 116.3826118,
      "tags": {
        "amenity": "toilets"
      }
    },
    {
      "type": "node",
      "id": 3049750133,
      "lat": 39.998361,
      "lon": 116.387937,
      "tags": {
        "amenity": "restaurant",
        "name": "小吊梨汤",
        "name:zh": "小吊梨汤",
        "name:zh-Hans": "小吊梨汤",
        "name:zh-Hant": "小吊梨湯"
      }
    },
    {
      "type": "node",
      "id": 3049751233,
      "lat": 39.996323,
      "lon": 116.38813,
      "tags": {
        "amenity": "restaurant",
        "name": "玲珑小馆",
        "name:zh": "玲珑小馆",
        "name:zh-Hans": "玲珑小馆",
        "name:zh-Hant": "玲瓏小館"
      }
    },
    {
      "type": "node",
      "id": 3049754233,
      "lat": 39.99869,
      "lon": 116.38607,
      "tags": {
        "name": "E口",
        "name:zh": "E口",
        "name:zh-Hans": "E口",
        "name:zh-Hant": "E口",
        "railway": "subway_entrance"
      }
    },
    {
      "type": "node",
      "id": 3049772633,
      "lat": 39.997917,
      "lon": 116.382079,
      "tags": {
        "amenity": "restaurant",
        "name": "盒乐弁当",
        "name:zh": "盒乐弁当",
        "name:zh-Hans": "盒乐弁当",
        "name:zh-Hant": "盒樂弁當"
      }
    },
    {
      "type": "node",
      "id": 3072745102,
      "lat": 40.0009918,
      "lon": 116.3995187,
      "tags": {
        "bench": "yes",
        "bin": "yes",
        "bus": "yes",
        "highway": "bus_stop",
        "name": "豹房",
        "name:zh": "豹房",
        "passenger_information_display": "yes",
        "public_transport": "platform",
        "shelter": "yes",
        "tactile_paving": "yes"
      }
    },
    {
      "type": "node",
      "id": 3072745103,
      "lat": 40.0013373,
      "lon": 116.3991078,
      "tags": {
        "bus": "yes",
        "highway": "bus_stop",
        "name": "豹房",
        "name:zh": "豹房",
        "public_transport": "platform"
      }
    },
    {
      "type": "node",
      "id": 3072761658,
      "lat": 40.0004394,
      "lon": 116.3725313,
      "tags": {
        "bus": "yes",
        "name": "南沟泥河",
        "name:zh": "南沟泥河",
        "name:zh-Hans": "南沟泥河",
        "name:zh-Hant": "南溝泥河",
        "public_transport": "stop_position"
      }
    },
    {
      "type": "node",
      "id": 3254679261,
      "lat": 40.0001681,
      "lon": 116.3984727,
      "tags": {
        "amenity": "restaurant",
        "name": "匠熙小馆"
      }
    },
    {
      "type": "node",
      "id": 3377339996,
      "lat": 40.0007694,
      "lon": 116.3853266,
      "tags": {
        "name": "奥林匹克公园",
        "name:en": "Olympic Park",
        "name:zh": "奥林匹克公园",
        "name:zh-Hans": "奥林匹克公园",
        "name:zh-Hant": "奧林匹克公園",
        "public_transport": "stop_position",
        "railway": "stop",
        "subway": "yes",
        "wikidata": "Q7089092",
        "wikipedia": "zh:奥林匹克公园站 (北京市)"
      }
    },
    {
      "type": "node",
      "id": 3377339999,
      "lat": 40.0011182,
      "lon": 116.4016093,
      "tags": {
        "name": "安立路",
        "name:en": "Anlilu",
        "name:zh": "安立路",
        "public_transport": "stop_position",
        "railway": "stop",
        "subway": "yes"
      }
    },
    {
      "type": "node",
      "id": 3377340003,
      "lat": 40.0009912,
      "lon": 116.3853304,
      "tags": {
        "name": "奥林匹克公园",
        "name:en": "Olympic Park",
        "name:zh": "奥林匹克公园",
        "name:zh-Hans": "奥林匹克公园",
        "name:zh-Hant": "奧林匹克公園",
        "public_transport": "stop_position",
        "railway": "stop",
        "subway": "yes",
        "wikidata": "Q7089092",
        "wikipedia": "zh:奥林匹克公园站 (北京市)"
      }
    },
    {
      "type": "node",
      "id": 3377340010,
      "lat": 40.0012521,
      "lon": 116.4016161,
      "tags": {
        "name": "安立路",
        "name:en": "Anlilu",
        "name:zh": "安立路",
        "public_transport": "stop_position",
        "railway": "stop",
        "subway": "yes"
      }
    },
    {
      "type": "node",
      "id": 3377340012,
      "lat": 40.0014948,
      "lon": 116.4124735,
      "tags": {
        "name": "大屯路东",
        "name:en": "Datunlu East",
        "public_transport": "stop_position",
        "railway": "stop",
        "subway": "yes"
      }
    },
    {
      "type": "node",
      "id": 3377340016,
      "lat": 40.0016262,
      "lon": 116.4124802,
      "tags": {
        "name": "大屯路东",
        "name:en": "Datunlu East",
        "public_transport": "stop_position",
        "railway": "stop",
        "subway": "yes"
      }
    },
    {
      "type": "node",
      "id": 3379245688,
      "lat": 40.0003857,
      "lon": 116.3867559,
      "tags": {
        "name": "奥林匹克公园",
        "name:en": "Olympic Park",
        "name:ru": "Олимпийский парк",
        "name:zh": "奥林匹克公园",
        "name:zh-Hans": "奥林匹克公园",
        "name:zh-Hant": "奧林匹克公園",
        "public_transport": "station",
        "railway": "station",
        "station": "subway",
        "subway": "yes",
        "wheelchair": "yes",
        "wikidata": "Q7089092",
        "wikipedia": "zh:奥林匹克公园站 (北京市)"
      }
    },
    {
      "type": "node",
      "id": 3379245689,
      "lat": 40.0011779,
      "lon": 116.4016216,
      "tags": {
        "name": "安立路",
        "name:en": "Anlilu",
        "name:ru": "Улица Аньли",
        "name:zh": "安立路",
        "public_transport": "station",
        "railway": "station",
        "station": "subway",
        "subway": "yes",
        "wikidata": "Q18697398"
      }
    },
    {
      "type": "node",
      "id": 3546479426,
      "lat": 40.0040803,
      "lon": 116.3986258,
      "tags": {
        "amenity": "bank",
        "brand": "交通银行",
        "brand:en": "Bank of Communications",
        "brand:wikidata": "Q806680",
        "brand:wikipedia": "en:Bank of Communications",
        "brand:zh": "交通银行",
        "name": "交通银行",
        "name:en": "Bank of Communications",
        "name:zh": "交通银行",
        "opening_hours": "Mo-Fr 09:00-17:00"
      }
    },
    {
      "type": "node",
      "id": 3588976953,
      "lat": 39.9915214,
      "lon": 116.4009551,
      "tags": {
        "amenity": "bank",
        "brand": "北京银行",
        "brand:en": "Bank of Beijing",
        "brand:wikidata": "Q39146",
        "brand:wikipedia": "zh:北京銀行",
        "brand:zh": "北京银行",
        "name": "北京银行",
        "name:en": "Bank of Beijing",
        "name:zh": "北京银行"
      }
    },
    {
      "type": "node",
      "id": 3588976954,
      "lat": 39.9910959,
      "lon": 116.4005819,
      "tags": {
        "amenity": "bank",
        "name": "广东发展银行"
      }
    },
    {
      "type": "node",
      "id": 3610635938,
      "lat": 40.0152598,
      "lon": 116.3985863,
      "tags": {
        "amenity": "toilets"
      }
    },
    {
      "type": "node",
      "id": 3792419449,
      "lat": 40.0162114,
      "lon": 116.3905967,
      "tags": {
        "amenity": "toilets"
      }
    },
    {
      "type": "node",
      "id": 3792447207,
      "lat": 40.0155855,
      "lon": 116.3876316,
      "tags": {
        "amenity": "toilets"
      }
    },
    {
      "type": "node",
      "id": 4244725995,
      "lat": 39.9970356,
      "lon": 116.3816545,
      "tags": {
        "brand": "InterContinental",
        "brand:wikidata": "Q1825730",
        "brand:wikipedia": "en:InterContinental",
        "name": "北辰洲际酒店",
        "name:en": "Intercontinental Beijing Beichen",
        "name:zh": "北辰洲际酒店",
        "tourism": "hotel",
        "wikidata": "Q10903985",
        "wikimedia_commons": "Category:InterContinental Beijing Beichen",
        "wikipedia": "zh:北京北辰洲际酒店"
      }
    },
    {
      "type": "node",
      "id": 4258234691,
      "lat": 39.9934305,
      "lon": 116.4084176,
      "tags": {
        "addr:housenumber": "安慧里1区1-4号",
        "addr:postcode": "100101",
        "addr:street": "慧忠路",
        "amenity": "restaurant",
        "cuisine": "chinese;beef_bowl;noodles",
        "name": "百年锅贴(亚运村店)",
        "name:en": "Bainian Dumplings (Asian Games Village)",
        "name:zh": "百年锅贴(亚运村店)",
        "name:zh-Latn-pinyin": "Bǎi Nián Guō Tiē (Yà Yùn Cūn Diàn)",
        "opening_hours": "Mo-Su 09:00-21:00",
        "phone": "+86 189 1127 0587",
        "smoking": "no",
        "takeaway": "yes"
      }
    },
    {
      "type": "node",
      "id": 4258251090,
      "lat": 39.9933556,
      "lon": 116.4042872,
      "tags": {
        "addr:housenumber": "安慧里2区4号楼",
        "addr:postcode": "100101",
        "addr:street": "慧忠路",
        "amenity": "restaurant",
        "brand": "Domino's",
        "cuisine": "pizza",
        "name": "达美乐比萨(慧忠路店)",
        "name:en": "Domino’s Pizza (Huizhong Lu)",
        "name:zh": "达美乐比萨(慧忠路店)",
        "name:zh-Latn-pinyin": "Dá Měi Lè Bǐ Sà (Huì Zhōng Lù Diàn)",
        "not:brand:wikidata": "Q839466",
        "opening_hours": "24/7",
        "payment:alipay": "yes",
        "payment:cash": "yes",
        "phone": "+86 400 159 7597"
      }
    },
    {
      "type": "node",
      "id": 4260186190,
      "lat": 39.994123,
      "lon": 116.4114402,
      "tags": {
        "addr:street": "北苑路",
        "amenity": "bank",
        "brand": "中信银行",
        "brand:en": "China CITIC Bank",
        "brand:wikidata": "Q38960",
        "brand:wikipedia": "en:China CITIC Bank",
        "name": "中信银行",
        "name:en": "China CITIC Bank"
      }
    },
    {
      "type": "node",
      "id": 4260191089,
      "lat": 39.994246,
      "lon": 116.4114365,
      "tags": {
        "addr:street": "北苑路",
        "amenity": "atm",
        "brand": "中国农业银行",
        "brand:en": "Agricultural Bank of China",
        "brand:wikidata": "Q26298",
        "brand:wikipedia": "en:Agricultural Bank of China",
        "name": "中国农业银行",
        "name:en": "Agricultural Bank of China",
        "operator": "中国农业银行",
        "operator:wikidata": "Q26298",
        "operator:wikipedia": "en:Agricultural Bank of China"
      }
    },
    {
      "type": "node",
      "id": 4260201490,
      "lat": 39.9934399,
      "lon": 116.4085818,
      "tags": {
        "amenity": "restaurant",
        "name": "泰中泰尚品烤串烤羊腿",
        "opening_hours": "Mo-Fr 15:30-02:30; Sa-Su 12:00-02:30"
      }
    },
    {
      "type": "node",
      "id": 4260218189,
      "lat": 39.9939939,
      "lon": 116.4114847,
      "tags": {
        "addr:street": "北苑路",
        "amenity": "cafe",
        "brand": "星巴克",
        "brand:en": "Starbucks",
        "brand:wikidata": "Q37158",
        "brand:wikipedia": "zh:星巴克",
        "brand:zh": "星巴克",
        "cuisine": "coffee_shop",
        "name": "星巴克",
        "name:en": "Starbucks",
        "name:zh": "星巴克",
        "takeaway": "yes"
      }
    },
    {
      "type": "node",
      "id": 4260218289,
      "lat": 39.9934325,
      "lon": 116.4082722,
      "tags": {
        "amenity": "restaurant",
        "name": "百年卤煮"
      }
    },
    {
      "type": "node",
      "id": 4260218689,
      "lat": 39.9934272,
      "lon": 116.4086902,
      "tags": {
        "amenity": "restaurant",
        "cuisine": "japanese",
        "name": "江织田日本料理"
      }
    },
    {
      "type": "node",
      "id": 4260218690,
      "lat": 39.9934385,
      "lon": 116.4088529,
      "tags": {
        "amenity": "restaurant",
        "name": "老诚一锅"
      }
    },
    {
      "type": "node",
      "id": 4264013095,
      "lat": 39.9933892,
      "lon": 116.4036679,
      "tags": {
        "addr:street": "慧忠路",
        "amenity": "fast_food",
        "cuisine": "beef_bowl;chinese;ramen;breakfast",
        "name": "小豆面馆 Xiaodou Noodles",
        "opening_hours": "24/7"
      }
    },
    {
      "type": "node",
      "id": 4353918245,
      "lat": 40.0138561,
      "lon": 116.3860532,
      "tags": {
        "tourism": "viewpoint"
      }
    },
    {
      "type": "node",
      "id": 4354019467,
      "lat": 40.0074921,
      "lon": 116.3752159,
      "tags": {
        "brand": "7-Eleven",
        "brand:wikidata": "Q259340",
        "brand:wikipedia": "en:7-Eleven",
        "name": "7-Eleven",
        "name:en": "7-Eleven",
        "shop": "convenience"
      }
    },
    {
      "type": "node",
      "id": 4361059842,
      "lat": 40.0204789,
      "lon": 116.3893023,
      "tags": {
        "amenity": "toilets"
      }
    },
    {
      "type": "node",
      "id": 4361081239,
      "lat": 40.0051836,
      "lon": 116.3872236,
      "tags": {
        "amenity": "toilets"
      }
    },
    {
      "type": "node",
      "id": 4361109318,
      "lat": 40.009535,
      "lon": 116.3903376,
      "tags": {
        "amenity": "toilets"
      }
    },
    {
      "type": "node",
      "id": 4367206543,
      "lat": 40.0114864,
      "lon": 116.371089,
      "tags": {
        "amenity": "toilets"
      }
    },
    {
      "type": "node",
      "id": 4367253702,
      "lat": 40.0084839,
      "lon": 116.3861137,
      "tags": {
        "shop": "convenience"
      }
    },
    {
      "type": "node",
      "id": 4367743207,
      "lat": 40.00281,
      "lon": 116.41076,
      "tags": {
        "bench": "yes",
        "bin": "yes",
        "bus": "yes",
        "highway": "bus_stop",
        "name": "地铁大屯路东站",
        "name:zh": "地铁大屯路东站",
        "passenger_information_display": "yes",
        "public_transport": "platform",
        "shelter": "yes",
        "tactile_paving": "yes"
      }
    },
    {
      "type": "node",
      "id": 4367743208,
      "lat": 40.0014304,
      "lon": 116.4049166,
      "tags": {
        "bus": "yes",
        "highway": "bus_stop",
        "name": "大屯东",
        "name:zh": "大屯东",
        "public_transport": "platform"
      }
    },
    {
      "type": "node",
      "id": 4367744306,
      "lat": 40.0060204,
      "lon": 116.4102113,
      "tags": {
        "bus": "yes",
        "highway": "bus_stop",
        "name": "北苑路大屯北站",
        "name:zh": "北苑路大屯北站",
        "public_transport": "platform"
      }
    },
    {
      "type": "node",
      "id": 4373005497,
      "lat": 40.002858,
      "lon": 116.4113385,
      "tags": {
        "bench": "yes",
        "bus": "yes",
        "highway": "bus_stop",
        "name": "地铁大屯路东站",
        "name:zh": "地铁大屯路东站",
        "public_transport": "platform",
        "shelter": "yes"
      }
    },
    {
      "type": "node",
      "id": 4375540097,
      "lat": 40.0145593,
      "lon": 116.3820724,
      "tags": {
        "name": "听泉轩",
        "name:en": "Waterfall",
        "name:zh": "听泉轩",
        "tourism": "viewpoint"
      }
    },
    {
      "type": "node",
      "id": 4380570989,
      "lat": 39.9936957,
      "lon": 116.3962625,
      "tags": {
        "addr:housenumber": "19",
        "addr:postcode": "110101",
        "addr:street": "慧忠路",
        "name": "国玉大酒店",
        "name:en": "Nacional Jade Hotel",
        "name:pt": "Nacional Jade Hotel",
        "phone": "+86 10 6496 9988",
        "tourism": "hotel"
      }
    },
    {
      "type": "node",
      "id": 4384983290,
      "lat": 40.0014706,
      "lon": 116.402408,
      "tags": {
        "railway": "subway_entrance",
        "ref": "B"
      }
    },
    {
      "type": "node",
      "id": 4384996790,
      "lat": 40.0010027,
      "lon": 116.402562,
      "tags": {
        "railway": "subway_entrance",
        "ref": "C"
      }
    },
    {
      "type": "node",
      "id": 4385366275,
      "lat": 40.0030363,
      "lon": 116.3998362,
      "tags": {
        "amenity": "bank",
        "brand": "招商银行",
        "brand:en": "China Merchants Bank",
        "brand:wikidata": "Q1073327",
        "brand:wikipedia": "en:China Merchants Bank",
        "brand:zh": "招商银行",
        "name": "招商银行",
        "name:en": "China Merchants Bank",
        "name:zh": "招商银行"
      }
    },
    {
      "type": "node",
      "id": 4385366276,
      "lat": 40.0040296,
      "lon": 116.398881,
      "tags": {
        "amenity": "restaurant",
        "name": "眉州东坡酒楼",
        "opening_hours": "Mo-Su 06:30-24:00"
      }
    },
    {
      "type": "node",
      "id": 4403560124,
      "lat": 40.0009946,
      "lon": 116.3840325,
      "tags": {
        "description": "This exit was closed on January 2, 2019",
        "name": "F（錯誤）",
        "name:en": "F (Closed)",
        "railway": "subway_entrance"
      }
    },
    {
      "type": "node",
      "id": 4403560125,
      "lat": 40.0000485,
      "lon": 116.3849318,
      "tags": {
        "name": "H口",
        "name:zh": "H口",
        "name:zh-Hans": "H口",
        "name:zh-Hant": "H口",
        "railway": "subway_entrance"
      }
    },
    {
      "type": "node",
      "id": 4423748732,
      "lat": 40.0165893,
      "lon": 116.4071339,
      "tags": {
        "amenity": "toilets"
      }
    },
    {
      "type": "node",
      "id": 4448938295,
      "lat": 39.9937716,
      "lon": 116.4057402,
      "tags": {
        "bench": "yes",
        "bin": "yes",
        "bus": "yes",
        "highway": "bus_stop",
        "name": "安慧北里",
        "name:zh": "安慧北里",
        "passenger_information_display": "yes",
        "public_transport": "platform",
        "shelter": "yes",
        "tactile_paving": "yes"
      }
    },
    {
      "type": "node",
      "id": 4448942197,
      "lat": 39.9959111,
      "lon": 116.4016432,
      "tags": {
        "bench": "no",
        "bin": "yes",
        "bus": "yes",
        "highway": "bus_stop",
        "name": "炎黄艺术馆",
        "name:zh": "炎黄艺术馆",
        "public_transport": "platform",
        "shelter": "yes"
      }
    },
    {
      "type": "node",
      "id": 4449106555,
      "lat": 39.9939082,
      "lon": 116.4031503,
      "tags": {
        "amenity": "cafe",
        "name": "木维咖啡"
      }
    },
    {
      "type": "node",
      "id": 4449109166,
      "lat": 39.9962391,
      "lon": 116.4013547,
      "tags": {
        "bus": "yes",
        "highway": "bus_stop",
        "name": "炎黄艺术馆",
        "name:zh": "炎黄艺术馆",
        "public_transport": "platform"
      }
    },
    {
      "type": "node",
      "id": 4683188051,
      "lat": 40.0105603,
      "lon": 116.3812177,
      "tags": {
        "amenity": "toilets"
      }
    },
    {
      "type": "node",
      "id": 4755378627,
      "lat": 40.0024725,
      "lon": 116.3947912,
      "tags": {
        "amenity": "bank",
        "brand": "交通银行",
        "brand:en": "Bank of Communications",
        "brand:wikidata": "Q806680",
        "brand:wikipedia": "en:Bank of Communications",
        "brand:zh": "交通银行",
        "name": "交通银行",
        "name:en": "Bank of Communications",
        "name:zh": "交通银行"
      }
    },
    {
      "type": "node",
      "id": 4756090270,
      "lat": 40.0025922,
      "lon": 116.3989791,
      "tags": {
        "amenity": "bank",
        "brand": "中国邮政储蓄银行",
        "brand:en": "Postal Savings Bank of China",
        "brand:wikidata": "Q986744",
        "brand:wikipedia": "en:Postal Savings Bank of China",
        "brand:zh": "中国邮政储蓄银行",
        "name": "中国邮政储蓄银行",
        "name:en": "Postal Savings Bank of China",
        "name:zh": "中国邮政储蓄银行"
      }
    },
    {
      "type": "node",
      "id": 4756090271,
      "lat": 40.0025595,
      "lon": 116.4010653,
      "tags": {
        "amenity": "bank",
        "atm": "yes",
        "brand": "上海浦东发展银行",
        "brand:en": "Shanghai Pudong Development Bank",
        "brand:wikidata": "Q1479076",
        "brand:wikipedia": "zh:上海浦东发展银行",
        "brand:zh": "上海浦东发展银行",
        "name": "上海浦东发展银行",
        "name:en": "Shanghai Pudong Development Bank",
        "name:zh": "上海浦东发展银行",
        "opening_hours": "Mo-Fr 09:00-17:00; Sa,Su 09:30-16:00"
      }
    },
    {
      "type": "node",
      "id": 4756090272,
      "lat": 39.9989348,
      "lon": 116.3815051,
      "tags": {
        "amenity": "bank",
        "brand": "宁波银行",
        "brand:en": "Bank of Ningbo",
        "brand:wikidata": "Q4856166",
        "brand:wikipedia": "zh:宁波银行",
        "brand:zh": "宁波银行",
        "name": "宁波银行",
        "name:en": "Bank of Ningbo",
        "name:zh": "宁波银行"
      }
    },
    {
      "type": "node",
      "id": 4756090273,
      "lat": 40.0040624,
      "lon": 116.3978318,
      "tags": {
        "amenity": "restaurant",
        "cuisine": "chinese",
        "name": "雅兰轩中餐厅",
        "phone": "+86 10 6480 9988"
      }
    },
    {
      "type": "node",
      "id": 4756090274,
      "lat": 40.0045795,
      "lon": 116.3998489,
      "tags": {
        "name": "长沙宾馆",
        "tourism": "hotel"
      }
    },
    {
      "type": "node",
      "id": 4756090275,
      "lat": 40.0049174,
      "lon": 116.4005593,
      "tags": {
        "amenity": "restaurant",
        "name": "湘乡楼"
      }
    },
    {
      "type": "node",
      "id": 4756094313,
      "lat": 40.0008279,
      "lon": 116.3957302,
      "tags": {
        "bus": "yes",
        "highway": "bus_stop",
        "name": "豹房西",
        "name:zh": "豹房西",
        "public_transport": "platform"
      }
    },
    {
      "type": "node",
      "id": 4769096334,
      "lat": 39.9978086,
      "lon": 116.4045921,
      "tags": {
        "addr:full": "北京市朝阳区安慧北里安园8号楼",
        "branch": "北京鸟巢店",
        "brand": "速8酒店",
        "brand:en": "Super 8",
        "brand:wikidata": "Q5364003",
        "brand:wikipedia": "zh:速8酒店",
        "brand:zh": "速8酒店",
        "name": "速8酒店",
        "name:en": "Super 8",
        "name:zh": "速8酒店",
        "official_name": "Super 8 by Wyndham",
        "ref": "145",
        "tourism": "hotel",
        "website": "http://www.super8.com.cn"
      }
    },
    {
      "type": "node",
      "id": 4803738622,
      "lat": 40.0041853,
      "lon": 116.4036887,
      "tags": {
        "amenity": "bank",
        "brand": "交通银行",
        "brand:en": "Bank of Communications",
        "brand:wikidata": "Q806680",
        "brand:wikipedia": "en:Bank of Communications",
        "brand:zh": "交通银行",
        "name": "交通银行",
        "name:en": "Bank of Communications",
        "name:zh": "交通银行"
      }
    },
    {
      "type": "node",
      "id": 4803738623,
      "lat": 40.0041546,
      "lon": 116.4034865,
      "tags": {
        "amenity": "bank",
        "brand": "中国建设银行",
        "brand:en": "China Construction Bank",
        "brand:wikidata": "Q26299",
        "brand:wikipedia": "en:China Construction Bank",
        "brand:zh": "中国建设银行",
        "name": "中国建设银行",
        "name:en": "China Construction Bank",
        "name:zh": "中国建设银行"
      }
    },
    {
      "type": "node",
      "id": 4807307421,
      "lat": 39.9930402,
      "lon": 116.3875469,
      "tags": {
        "name": "北京奥林匹克公园",
        "name:de": "Olympisches Dorf",
        "name:en": "Beijing Olympic Park",
        "name:zh": "北京奥林匹克公园",
        "name:zh-Hant": "北京奧林匹克公園",
        "tourism": "attraction"
      }
    },
    {
      "type": "node",
      "id": 4822539500,
      "lat": 40.0009278,
      "lon": 116.4004215,
      "tags": {
        "railway": "subway_entrance",
        "ref": "D"
      }
    },
    {
      "type": "node",
      "id": 4822539501,
      "lat": 40.0015351,
      "lon": 116.4006272,
      "tags": {
        "railway": "subway_entrance",
        "ref": "A2"
      }
    },
    {
      "type": "node",
      "id": 4836866369,
      "lat": 40.0065958,
      "lon": 116.4106557,
      "tags": {
        "bench": "yes",
        "bus": "yes",
        "highway": "bus_stop",
        "name": "北苑路大屯北站",
        "name:zh": "北苑路大屯北站",
        "public_transport": "platform",
        "shelter": "yes"
      }
    },
    {
      "type": "node",
      "id": 4853797160,
      "lat": 40.0046465,
      "lon": 116.4064031,
      "tags": {
        "amenity": "restaurant",
        "brand": "海底捞火锅",
        "brand:en": "Haidilao Hot Pot",
        "brand:wikidata": "Q5638920",
        "brand:wikipedia": "zh:海底捞",
        "brand:zh": "海底捞火锅",
        "brand:zh-Hans": "海底捞火锅",
        "brand:zh-Hant": "海底撈火鍋",
        "cuisine": "chinese;hotpot",
        "name": "海底捞火锅",
        "name:en": "Haidilao Hot Pot",
        "name:zh": "海底捞火锅",
        "name:zh-Hans": "海底捞火锅",
        "name:zh-Hant": "海底撈火鍋"
      }
    },
    {
      "type": "node",
      "id": 4858657857,
      "lat": 39.9893632,
      "lon": 116.4000535,
      "tags": {
        "amenity": "cafe",
        "brand": "星巴克",
        "brand:en": "Starbucks",
        "brand:wikidata": "Q37158",
        "brand:wikipedia": "zh:星巴克",
        "brand:zh": "星巴克",
        "cuisine": "coffee_shop",
        "name": "星巴克",
        "name:en": "Starbucks",
        "name:zh": "星巴克",
        "takeaway": "yes"
      }
    },
    {
      "type": "node",
      "id": 4858657933,
      "lat": 39.9900885,
      "lon": 116.4000668,
      "tags": {
        "amenity": "fast_food",
        "brand": "汉堡王",
        "brand:en": "Burger King",
        "brand:wikidata": "Q177054",
        "brand:wikipedia": "zh:漢堡王",
        "brand:zh": "汉堡王",
        "cuisine": "burger",
        "name": "汉堡王",
        "name:en": "Burger King",
        "name:zh": "汉堡王",
        "takeaway": "yes"
      }
    },
    {
      "type": "node",
      "id": 4858658130,
      "lat": 39.9884174,
      "lon": 116.3996618,
      "tags": {
        "amenity": "restaurant",
        "name": "五洲皇冠巴西烤肉餐厅",
        "name:en": "Brazilian Churrascos",
        "name:zh": "五洲皇冠巴西烤肉餐厅"
      }
    },
    {
      "type": "node",
      "id": 4862039691,
      "lat": 39.9899979,
      "lon": 116.4003439,
      "tags": {
        "amenity": "fast_food",
        "brand": "赛百味",
        "brand:en": "Subway",
        "brand:wikidata": "Q244457",
        "brand:wikipedia": "zh:赛百味",
        "brand:zh": "赛百味",
        "cuisine": "sandwich",
        "name": "赛百味",
        "name:en": "Subway",
        "name:zh": "赛百味",
        "takeaway": "yes"
      }
    },
    {
      "type": "node",
      "id": 5041996024,
      "lat": 40.0005554,
      "lon": 116.3951986,
      "tags": {
        "name": "全时",
        "name:zh": "全时",
        "shop": "convenience"
      }
    },
    {
      "type": "node",
      "id": 5041996127,
      "lat": 40.0031683,
      "lon": 116.3946714,
      "tags": {
        "amenity": "restaurant",
        "cuisine": "hotpot",
        "name": "王家渡火锅",
        "name:zh": "王家渡火锅"
      }
    },
    {
      "type": "node",
      "id": 5042003021,
      "lat": 40.0036759,
      "lon": 116.3960479,
      "tags": {
        "bus": "yes",
        "highway": "bus_stop",
        "name": "大屯北路",
        "name:zh": "大屯北路",
        "public_transport": "platform",
        "shelter": "no"
      }
    },
    {
      "type": "node",
      "id": 5042011024,
      "lat": 40.0007982,
      "lon": 116.4003473,
      "tags": {
        "brand": "7-Eleven",
        "brand:wikidata": "Q259340",
        "brand:wikipedia": "en:7-Eleven",
        "name": "7-Eleven",
        "name:zh": "711",
        "shop": "convenience"
      }
    },
    {
      "type": "node",
      "id": 5115147022,
      "lat": 40.0015255,
      "lon": 116.3998372,
      "tags": {
        "amenity": "bank",
        "brand": "恒丰银行",
        "brand:en": "HengFeng Bank",
        "brand:wikidata": "Q11072892",
        "brand:zh": "恒丰银行",
        "name": "恒丰银行",
        "name:en": "HengFeng Bank",
        "name:zh": "恒丰银行"
      }
    },
    {
      "type": "node",
      "id": 5129806055,
      "lat": 40.0108399,
      "lon": 116.3752165,
      "tags": {
        "amenity": "toilets"
      }
    },
    {
      "type": "node",
      "id": 5129808138,
      "lat": 40.0092861,
      "lon": 116.3778482,
      "tags": {
        "amenity": "toilets"
      }
    },
    {
      "type": "node",
      "id": 5134128391,
      "lat": 40.0095504,
      "lon": 116.387556,
      "tags": {
        "amenity": "toilets"
      }
    },
    {
      "type": "node",
      "id": 5137413126,
      "lat": 40.0039163,
      "lon": 116.3988112,
      "tags": {
        "bench": "no",
        "bin": "no",
        "bus": "yes",
        "highway": "bus_stop",
        "name": "慧忠北里社区",
        "name:zh": "慧忠北里社区",
        "public_transport": "platform",
        "shelter": "no"
      }
    },
    {
      "type": "node",
      "id": 5223056322,
      "lat": 39.9933738,
      "lon": 116.4065493,
      "tags": {
        "amenity": "restaurant",
        "name": "北平食府"
      }
    },
    {
      "type": "node",
      "id": 5223056328,
      "lat": 39.9933749,
      "lon": 116.4038666,
      "tags": {
        "amenity": "restaurant",
        "name": "京味斋烤鸭店"
      }
    },
    {
      "type": "node",
      "id": 5305505998,
      "lat": 40.009195,
      "lon": 116.3864002,
      "tags": {
        "name": "森林公园南门",
        "name:en": "South Gate of Forest Park",
        "name:ru": "Южные ворота лесопарка",
        "name:zh": "森林公园南门",
        "public_transport": "station",
        "railway": "station",
        "station": "subway",
        "subway": "yes",
        "wikidata": "Q847787"
      }
    },
    {
      "type": "node",
      "id": 5402687151,
      "lat": 40.0015358,
      "lon": 116.4121905,
      "tags": {
        "name": "大屯路东",
        "name:en": "Datunlu East",
        "public_transport": "station",
        "railway": "station",
        "station": "subway",
        "subway": "yes",
        "wikidata": "Q5227793",
        "wikipedia": "en:Datunludong station"
      }
    },
    {
      "type": "node",
      "id": 5402695989,
      "lat": 40.0008946,
      "lon": 116.3853355,
      "tags": {
        "name": "奥林匹克公园",
        "name:en": "Olympic Park",
        "name:zh": "奥林匹克公园",
        "name:zh-Hans": "奥林匹克公园",
        "name:zh-Hant": "奧林匹克公園",
        "public_transport": "station",
        "railway": "station",
        "station": "subway",
        "subway": "yes",
        "wheelchair": "yes",
        "wikidata": "Q7089092",
        "wikipedia": "zh:奥林匹克公园站 (北京市)"
      }
    },
    {
      "type": "node",
      "id": 5447564524,
      "lat": 40.0021697,
      "lon": 116.4110688,
      "tags": {
        "name": "大屯路东",
        "name:en": "Datunlu East",
        "name:ru": "Датуньлу-Восточная",
        "public_transport": "station",
        "railway": "station",
        "station": "subway",
        "subway": "yes",
        "wikidata": "Q5227793",
        "wikipedia": "en:Datunludong station"
      }
    },
    {
      "type": "node",
      "id": 5626071422,
      "lat": 40.0084662,
      "lon": 116.3867221,
      "tags": {
        "shop": "convenience"
      }
    },
    {
      "type": "node",
      "id": 5660146220,
      "lat": 39.9994986,
      "lon": 116.4066245,
      "tags": {
        "amenity": "restaurant",
        "cuisine": "hotpot",
        "name": "叫座儿火锅(亚运村店)"
      }
    },
    {
      "type": "node",
      "id": 5660146521,
      "lat": 39.9995654,
      "lon": 116.4066272,
      "tags": {
        "name": "奥慧宾馆",
        "tourism": "hotel"
      }
    },
    {
      "type": "node",
      "id": 5660148088,
      "lat": 39.9976483,
      "lon": 116.4061256,
      "tags": {
        "amenity": "restaurant",
        "brand": "西贝莜面村",
        "brand:wikidata": "Q111041047",
        "cuisine": "chinese",
        "name": "西贝莜面村"
      }
    },
    {
      "type": "node",
      "id": 5660150378,
      "lat": 40.0036042,
      "lon": 116.4098178,
      "tags": {
        "brand": "永辉超市",
        "brand:en": "Yonghui Superstores",
        "brand:wikidata": "Q17028520",
        "brand:wikipedia": "zh:永辉超市",
        "brand:zh": "永辉超市",
        "name": "永辉超市",
        "name:en": "Yonghui Superstores",
        "name:zh": "永辉超市",
        "shop": "supermarket"
      }
    },
    {
      "type": "node",
      "id": 5733882921,
      "lat": 40.0155235,
      "lon": 116.379577,
      "tags": {
        "amenity": "toilets"
      }
    },
    {
      "type": "node",
      "id": 5736330921,
      "lat": 39.988702,
      "lon": 116.3920975,
      "tags": {
        "name": "鸟巢",
        "name:zh-Hant": "鳥巢",
        "tourism": "viewpoint"
      }
    },
    {
      "type": "node",
      "id": 5743670396,
      "lat": 40.0104281,
      "lon": 116.3853723,
      "tags": {
        "amenity": "fast_food"
      }
    },
    {
      "type": "node",
      "id": 5881431813,
      "lat": 39.9967757,
      "lon": 116.3743094,
      "tags": {
        "bus": "yes",
        "highway": "bus_stop",
        "name": "科学园南里中街",
        "name:zh": "科学园南里中街",
        "name:zh-Hant": "科學園南里中街",
        "public_transport": "platform"
      }
    },