{
  "version": 0.6,
  "generator": "Overpass API 0.7.62.11 87bfad18",
  "osm3s": {
    "timestamp_osm_base": "2026-04-23T09:10:14Z",
    "copyright": "The data included in this document is from www.openstreetmap.org. The data is made available under ODbL."
  },
  "elements": [
    {
      "type": "node",
      "id": 77746350,
      "lat": 39.8919471,
      "lon": 116.4163309,
      "tags": {
        "bus": "yes",
        "name": "榄杆市",
        "name:zh": "榄杆市",
        "public_transport": "stop_position"
      }
    },
    {
      "type": "node",
      "id": 245106232,
      "lat": 39.8869632,
      "lon": 116.4094543,
      "tags": {
        "bus": "yes",
        "name": "红桥路口西",
        "name:zh": "红桥路口西",
        "public_transport": "stop_position"
      }
    },
    {
      "type": "node",
      "id": 318265958,
      "lat": 39.8966333,
      "lon": 116.3944354,
      "tags": {
        "bus": "yes",
        "name": "前门",
        "name:zh": "前门",
        "public_transport": "stop_position"
      }
    },
    {
      "type": "node",
      "id": 322121130,
      "lat": 39.8918312,
      "lon": 116.4163753,
      "tags": {
        "bus": "yes",
        "name": "榄杆市",
        "name:zh": "榄杆市",
        "public_transport": "stop_position"
      }
    },
    {
      "type": "node",
      "id": 322447230,
      "lat": 39.869874,
      "lon": 116.4141072,
      "tags": {
        "bus": "yes",
        "name": "玉蜓桥西",
        "name:zh": "玉蜓桥西",
        "public_transport": "stop_position"
      }
    },
    {
      "type": "node",
      "id": 340260038,
      "lat": 39.8917004,
      "lon": 116.4127135,
      "tags": {
        "name": "磁器口",
        "name:en": "Ciqikou",
        "name:zh": "磁器口",
        "public_transport": "stop_position",
        "railway": "stop",
        "subway": "yes"
      }
    },
    {
      "type": "node",
      "id": 340260096,
      "lat": 39.8822596,
      "lon": 116.4146462,
      "tags": {
        "name": "天坛东门",
        "name:en": "East Gate of Temple of Heaven",
        "name:zh": "天坛东门",
        "public_transport": "stop_position",
        "railway": "stop",
        "subway": "yes"
      }
    },
    {
      "type": "node",
      "id": 734418729,
      "lat": 39.8834174,
      "lon": 116.3921524,
      "tags": {
        "bus": "yes",
        "name": "天桥",
        "name:zh": "天桥",
        "public_transport": "stop_position"
      }
    },
    {
      "type": "node",
      "id": 734521002,
      "lat": 39.8868307,
      "lon": 116.4052229,
      "tags": {
        "bus": "yes",
        "name": "天坛北门",
        "name:zh": "天坛北门",
        "public_transport": "stop_position"
      }
    },
    {
      "type": "node",
      "id": 1359089982,
      "lat": 39.8828851,
      "lon": 116.4141573,
      "tags": {
        "railway": "subway_entrance",
        "ref": "A2"
      }
    },
    {
      "type": "node",
      "id": 1359090002,
      "lat": 39.8912512,
      "lon": 116.4118114,
      "tags": {
        "name": "D出口",
        "railway": "subway_entrance",
        "ref": "D"
      }
    },
    {
      "type": "node",
      "id": 1359090003,
      "lat": 39.8920481,
      "lon": 116.4118221,
      "tags": {
        "name": "A出口",
        "railway": "subway_entrance"
      }
    },
    {
      "type": "node",
      "id": 1359090015,
      "lat": 39.8822564,
      "lon": 116.4144792,
      "tags": {
        "name": "天坛东门",
        "name:en": "East Gate of Temple of Heaven",
        "name:zh": "天坛东门",
        "public_transport": "stop_position",
        "railway": "stop",
        "subway": "yes"
      }
    },
    {
      "type": "node",
      "id": 1359090017,
      "lat": 39.8916994,
      "lon": 116.4125418,
      "tags": {
        "name": "磁器口",
        "name:en": "Ciqikou",
        "name:zh": "磁器口",
        "public_transport": "stop_position",
        "railway": "stop",
        "subway": "yes"
      }
    },
    {
      "type": "node",
      "id": 1408143339,
      "lat": 39.8902451,
      "lon": 116.3920678,
      "tags": {
        "railway": "buffer_stop"
      }
    },
    {
      "type": "node",
      "id": 1408143349,
      "lat": 39.8902494,
      "lon": 116.3921535,
      "tags": {
        "railway": "buffer_stop"
      }
    },
    {
      "type": "node",
      "id": 1408143354,
      "lat": 39.8904256,
      "lon": 116.3920192,
      "tags": {
        "name": "珠市口",
        "name:zh": "珠市口",
        "public_transport": "platform"
      }
    },
    {
      "type": "node",
      "id": 1408143355,
      "lat": 39.8904238,
      "lon": 116.3921807,
      "tags": {
        "name": "珠市口",
        "name:zh": "珠市口",
        "public_transport": "platform"
      }
    },
    {
      "type": "node",
      "id": 1408143389,
      "lat": 39.8904243,
      "lon": 116.3920603,
      "tags": {
        "name": "珠市口",
        "name:zh": "珠市口",
        "public_transport": "stop_position",
        "railway": "tram_stop",
        "tram": "yes"
      }
    },
    {
      "type": "node",
      "id": 1408143390,
      "lat": 39.8904219,
      "lon": 116.392145,
      "tags": {
        "name": "珠市口",
        "name:zh": "珠市口",
        "public_transport": "stop_position",
        "railway": "tram_stop",
        "tram": "yes"
      }
    },
    {
      "type": "node",
      "id": 1583217741,
      "lat": 39.8719351,
      "lon": 116.3921049,
      "tags": {
        "bus": "yes",
        "highway": "bus_stop",
        "name": "永定门内",
        "public_transport": "stop_position"
      }
    },
    {
      "type": "node",
      "id": 1583217902,
      "lat": 39.8783951,
      "lon": 116.3918941,
      "tags": {
        "bus": "yes",
        "name": "天坛西门",
        "name:zh": "天坛西门",
        "public_transport": "stop_position"
      }
    },
    {
      "type": "node",
      "id": 1598502540,
      "lat": 39.8915385,
      "lon": 116.4100578,
      "tags": {
        "bus": "yes",
        "name": "磁器口西",
        "name:zh": "磁器口西",
        "public_transport": "stop_position"
      }
    },
    {
      "type": "node",
      "id": 1598502563,
      "lat": 39.8916787,
      "lon": 116.4099449,
      "tags": {
        "bus": "yes",
        "name": "磁器口西",
        "name:zh": "磁器口西",
        "public_transport": "stop_position"
      }
    },
    {
      "type": "node",
      "id": 1841644236,
      "lat": 39.8742454,
      "lon": 116.4149223,
      "tags": {
        "bus": "yes",
        "name": "东侧路",
        "name:zh": "东侧路",
        "public_transport": "stop_position"
      }
    },
    {
      "type": "node",
      "id": 1849395693,
      "lat": 39.8722724,
      "lon": 116.4033486,
      "tags": {
        "amenity": "restaurant"
      }
    },
    {
      "type": "node",
      "id": 1852925515,
      "lat": 39.8831909,
      "lon": 116.4245644,
      "tags": {
        "designation": "Grand Soluxe Tian Tan Hotel",
        "name": "天坛饭店",
        "name:en": "Tiantan Hotel",
        "tourism": "hotel"
      }
    },
    {
      "type": "node",
      "id": 1859765964,
      "lat": 39.8717976,
      "lon": 116.4097755,
      "tags": {
        "bus": "yes",
        "name": "天坛南门东",
        "name:zh": "天坛南门东",
        "public_transport": "stop_position"
      }
    },
    {
      "type": "node",
      "id": 1859765965,
      "lat": 39.8718035,
      "lon": 116.4099916,
      "tags": {
        "bus": "yes",
        "name": "天坛南门东",
        "name:zh": "天坛南门东",
        "public_transport": "stop_position"
      }
    },
    {
      "type": "node",
      "id": 2056613814,
      "lat": 39.8933066,
      "lon": 116.4131778,
      "tags": {
        "amenity": "hospital",
        "healthcare": "hospital",
        "name": "北京市普仁医院"
      }
    },
    {
      "type": "node",
      "id": 2056613815,
      "lat": 39.8795585,
      "lon": 116.4179342,
      "tags": {
        "bus": "yes",
        "name": "东四块玉",
        "name:zh": "东四块玉",
        "public_transport": "stop_position"
      }
    },
    {
      "type": "node",
      "id": 2056613816,
      "lat": 39.8796349,
      "lon": 116.4181436,
      "tags": {
        "bus": "yes",
        "name": "东四块玉",
        "name:zh": "东四块玉",
        "public_transport": "stop_position"
      }
    },
    {
      "type": "node",
      "id": 2339326632,
      "lat": 39.874064,
      "lon": 116.4151535,
      "tags": {
        "bus": "yes",
        "highway": "bus_stop",
        "name": "东侧路",
        "name:zh": "东侧路",
        "public_transport": "platform"
      }
    },
    {
      "type": "node",
      "id": 2383146327,
      "lat": 39.8858268,
      "lon": 116.3954369,
      "tags": {
        "bus": "yes",
        "highway": "bus_stop",
        "name": "天桥路口东",
        "name:zh": "天桥路口东",
        "public_transport": "platform"
      }
    },
    {
      "type": "node",
      "id": 2383146358,
      "lat": 39.8934898,
      "lon": 116.4058497,
      "tags": {
        "bus": "yes",
        "name": "兴隆街",
        "name:zh": "兴隆街",
        "public_transport": "stop_position"
      }
    },
    {
      "type": "node",
      "id": 2383146359,
      "lat": 39.8940415,
      "lon": 116.4060297,
      "tags": {
        "bus": "yes",
        "name": "兴隆街",
        "name:zh": "兴隆街",
        "public_transport": "stop_position"
      }
    },
    {
      "type": "node",
      "id": 2383146360,
      "lat": 39.8868799,
      "lon": 116.4046725,
      "tags": {
        "bus": "yes",
        "name": "天坛北门",
        "name:zh": "天坛北门",
        "public_transport": "stop_position"
      }
    },
    {
      "type": "node",
      "id": 2383146362,
      "lat": 39.8857837,
      "lon": 116.3954683,
      "tags": {
        "bus": "yes",
        "name": "天桥路口东",
        "name:zh": "天桥路口东",
        "public_transport": "stop_position"
      }
    },
    {
      "type": "node",
      "id": 2383146364,
      "lat": 39.8966972,
      "lon": 116.4056794,
      "tags": {
        "bus": "yes",
        "name": "打磨厂",
        "name:zh": "打磨厂",
        "public_transport": "stop_position"
      }
    },
    {
      "type": "node",
      "id": 2383146365,
      "lat": 39.8969868,
      "lon": 116.4058613,
      "tags": {
        "bus": "yes",
        "name": "打磨厂",
        "name:zh": "打磨厂",
        "public_transport": "stop_position"
      }
    },
    {
      "type": "node",
      "id": 2383146366,
      "lat": 39.8896255,
      "lon": 116.4060594,
      "tags": {
        "bus": "yes",
        "name": "东晓市",
        "name:zh": "东晓市",
        "public_transport": "stop_position"
      }
    },
    {
      "type": "node",
      "id": 2383146367,
      "lat": 39.8898357,
      "lon": 116.4062701,
      "tags": {
        "bus": "yes",
        "name": "东晓市",
        "name:zh": "东晓市",
        "public_transport": "stop_position"
      }
    },
    {
      "type": "node",
      "id": 2383146368,
      "lat": 39.8867492,
      "lon": 116.4000049,
      "tags": {
        "bus": "yes",
        "name": "金鱼池",
        "name:zh": "金鱼池",
        "public_transport": "stop_position"
      }
    },
    {
      "type": "node",
      "id": 2383146369,
      "lat": 39.8866873,
      "lon": 116.4001302,
      "tags": {
        "bus": "yes",
        "name": "金鱼池",
        "name:zh": "金鱼池",
        "public_transport": "stop_position"
      }
    },
    {
      "type": "node",
      "id": 2383173553,
      "lat": 39.8785451,
      "lon": 116.3920274,
      "tags": {
        "bus": "yes",
        "name": "天坛西门",
        "name:zh": "天坛西门",
        "public_transport": "stop_position"
      }
    },
    {
      "type": "node",
      "id": 2383173554,
      "lat": 39.8807373,
      "lon": 116.3928604,
      "tags": {
        "bus": "yes",
        "name": "天坛西门",
        "name:zh": "天坛西门",
        "public_transport": "stop_position"
      }
    },
    {
      "type": "node",
      "id": 2383173561,
      "lat": 39.88285,
      "lon": 116.3927339,
      "tags": {
        "bus": "yes",
        "name": "天桥",
        "name:zh": "天桥",
        "public_transport": "stop_position"
      }
    },
    {
      "type": "node",
      "id": 2383182292,
      "lat": 39.8848461,
      "lon": 116.3886843,
      "tags": {
        "bus": "yes",
        "highway": "bus_stop",
        "name": "友谊医院东",
        "name:zh": "友谊医院东",
        "public_transport": "platform"
      }
    },
    {
      "type": "node",
      "id": 2383182293,
      "lat": 39.885007,
      "lon": 116.3883719,
      "tags": {
        "bus": "yes",
        "highway": "bus_stop",
        "name": "友谊医院东",
        "name:zh": "友谊医院东",
        "public_transport": "platform"
      }
    },
    {
      "type": "node",
      "id": 2383182302,
      "lat": 39.8850191,
      "lon": 116.3886456,
      "tags": {
        "bus": "yes",
        "name": "友谊医院东",
        "name:zh": "友谊医院东",
        "public_transport": "stop_position"
      }
    },
    {
      "type": "node",
      "id": 2383182303,
      "lat": 39.8850128,
      "lon": 116.3883242,
      "tags": {
        "bus": "yes",
        "name": "友谊医院东",
        "name:zh": "友谊医院东",
        "public_transport": "stop_position"
      }
    },
    {
      "type": "node",
      "id": 2387114182,
      "lat": 39.8665444,
      "lon": 116.4072818,
      "tags": {
        "bus": "yes",
        "highway": "bus_stop",
        "name": "李村",
        "name:zh": "李村",
        "public_transport": "platform"
      }
    },
    {
      "type": "node",
      "id": 2387114183,
      "lat": 39.8763596,
      "lon": 116.3942636,
      "tags": {
        "bus": "yes",
        "highway": "bus_stop",
        "name": "先农坛",
        "name:zh": "先农坛",
        "name:zh-Hans": "先农坛",
        "name:zh-Hant": "先農壇",
        "public_transport": "platform"
      }
    },
    {
      "type": "node",
      "id": 2387114186,
      "lat": 39.8641182,
      "lon": 116.4109778,
      "tags": {
        "addr:street": "安乐林路",
        "amenity": "bank",
        "atm": "yes",
        "brand": "中国工商银行",
        "brand:en": "Industrial and Commercial Bank of China",
        "brand:wikidata": "Q26463",
        "brand:wikipedia": "en:Industrial and Commercial Bank of China",
        "brand:zh": "中国工商银行",
        "int_name": "ICBC",
        "name": "中国工商银行",
        "name:en": "Industrial and Commercial Bank of China",
        "name:zh": "中国工商银行"
      }
    },
    {
      "type": "node",
      "id": 2387114187,
      "lat": 39.8716186,
      "lon": 116.3989123,
      "tags": {
        "bus": "yes",
        "highway": "bus_stop",
        "name": "永定门东",
        "name:zh": "永定门东",
        "public_transport": "platform"
      }
    },
    {
      "type": "node",
      "id": 2387114191,
      "lat": 39.8657136,
      "lon": 116.4075228,
      "tags": {
        "bench": "yes",
        "bus": "yes",
        "highway": "bus_stop",
        "name": "李村",
        "name:zh": "李村",
        "public_transport": "platform",
        "shelter": "yes"
      }
    },
    {
      "type": "node",
      "id": 2387120839,
      "lat": 39.8638036,
      "lon": 116.4092339,
      "tags": {
        "amenity": "fast_food",
        "brand": "庆丰包子铺",
        "brand:en": "Qingfeng Steamed Dumpling Shop",
        "brand:wikidata": "Q24841010",
        "brand:wikipedia": "zh:庆丰包子铺",
        "brand:zh": "庆丰包子铺",
        "cuisine": "chinese",
        "int_name": "Qingfeng Steamed Dunmplings Shop",
        "name": "庆丰包子铺",
        "name:en": "Qingfeng Steamed Dumpling Shop",
        "name:zh": "庆丰包子铺",
        "takeaway": "yes"
      }
    },
    {
      "type": "node",
      "id": 2387121816,
      "lat": 39.8637723,
      "lon": 116.4088643,
      "tags": {
        "addr:street": "安乐林路",
        "int_name": "Diya Everday",
        "name": "迪兴天天超市",
        "shop": "supermarket"
      }
    },
    {
      "type": "node",
      "id": 2420947267,
      "lat": 39.8786554,
      "lon": 116.381219,
      "tags": {
        "bus": "yes",
        "name": "太平街",
        "name:zh": "太平街",
        "public_transport": "stop_position"
      }
    },
    {
      "type": "node",
      "id": 2449562438,
      "lat": 39.8887293,
      "lon": 116.3875035,
      "tags": {
        "bus": "yes",
        "name": "板章路",
        "name:zh": "板章路",
        "public_transport": "stop_position"
      }
    },
    {
      "type": "node",
      "id": 2449562455,
      "lat": 39.8912842,
      "lon": 116.4001223,
      "tags": {
        "bus": "yes",
        "name": "东城三里河",
        "name:zh": "东城三里河",
        "public_transport": "stop_position"
      }
    },
    {
      "type": "node",
      "id": 2449562456,
      "lat": 39.8888265,
      "lon": 116.3872984,
      "tags": {
        "bus": "yes",
        "name": "板章路",
        "name:zh": "板章路",
        "public_transport": "stop_position"
      }
    },
    {
      "type": "node",
      "id": 2449562457,
      "lat": 39.8915278,
      "lon": 116.4065877,
      "tags": {
        "bus": "yes",
        "highway": "bus_stop",
        "name": "水道子",
        "name:zh": "水道子",
        "public_transport": "stop_position"
      }
    },
    {
      "type": "node",
      "id": 2449562458,
      "lat": 39.8893163,
      "lon": 116.3894492,
      "tags": {
        "bus": "yes",
        "name": "珠市口西",
        "name:zh": "珠市口西",
        "public_transport": "stop_position"
      }
    },
    {
      "type": "node",
      "id": 2455026568,
      "lat": 39.8751343,
      "lon": 116.3808694,
      "tags": {
        "amenity": "toilets"
      }
    },
    {
      "type": "node",
      "id": 2480760616,
      "lat": 39.8911801,
      "lon": 116.4001284,
      "tags": {
        "bus": "yes",
        "name": "东城三里河",
        "name:zh": "东城三里河",
        "public_transport": "stop_position"
      }
    },
    {
      "type": "node",
      "id": 2480760619,
      "lat": 39.8913147,
      "lon": 116.4038746,
      "tags": {
        "bus": "yes",
        "highway": "bus_stop",
        "name": "桥湾",
        "name:zh": "桥湾",
        "public_transport": "stop_position"
      }
    },
    {
      "type": "node",
      "id": 2480760620,
      "lat": 39.8914206,
      "lon": 116.4036357,
      "tags": {
        "bus": "yes",
        "highway": "bus_stop",
        "name": "桥湾",
        "name:en": "Qiaowan",
        "name:zh": "桥湾",
        "public_transport": "stop_position"
      }
    },
    {
      "type": "node",
      "id": 2480760621,
      "lat": 39.8914374,
      "lon": 116.4068363,
      "tags": {
        "bus": "yes",
        "highway": "bus_stop",
        "name": "水道子",
        "name:zh": "水道子",
        "public_transport": "stop_position"
      }
    },
    {
      "type": "node",
      "id": 2480776656,
      "lat": 39.8902951,
      "lon": 116.3933789,
      "tags": {
        "bus": "yes",
        "name": "过街楼",
        "name:zh": "过街楼",
        "public_transport": "stop_position"
      }
    },
    {
      "type": "node",
      "id": 2515011113,
      "lat": 39.8946824,
      "lon": 116.4123808,
      "tags": {
        "bus": "yes",
        "name": "花市路口南",
        "name:zh": "花市路口南",
        "public_transport": "stop_position"
      }
    },
    {
      "type": "node",
      "id": 2515011114,
      "lat": 39.892847,
      "lon": 116.4131927,
      "tags": {
        "name": "桔子水晶酒店",
        "tourism": "hotel"
      }
    },
    {
      "type": "node",
      "id": 2515011124,
      "lat": 39.8749326,
      "lon": 116.4154458,
      "tags": {
        "amenity": "bank",
        "brand": "北京银行",
        "brand:en": "Bank of Beijing",
        "brand:wikidata": "Q39146",
        "brand:wikipedia": "zh:北京銀行",
        "brand:zh": "北京银行",
        "name": "北京银行",
        "name:en": "Bank of Beijing",
        "name:zh": "北京银行"
      }
    },
    {
      "type": "node",
      "id": 2515011125,
      "lat": 39.8688775,
      "lon": 116.420155,
      "tags": {
        "bus": "yes",
        "name": "芳古园北",
        "name:zh": "芳古园北",
        "public_transport": "stop_position"
      }
    },
    {
      "type": "node",
      "id": 2524995148,
      "lat": 39.8699362,
      "lon": 116.3884538,
      "tags": {
        "bus": "yes",
        "name": "永定门西",
        "name:zh": "永定门西",
        "public_transport": "stop_position"
      }
    },
    {
      "type": "node",
      "id": 2524995149,
      "lat": 39.8703506,
      "lon": 116.3976631,
      "tags": {
        "bus": "yes",
        "name": "永定门东",
        "name:zh": "永定门东",
        "public_transport": "stop_position"
      }
    },
    {
      "type": "node",
      "id": 2533476855,
      "lat": 39.8647909,
      "lon": 116.4150867,
      "tags": {
        "railway": "subway_entrance",
        "ref": "A"
      }
    },
    {
      "type": "node",
      "id": 2738812685,
      "lat": 39.8861639,
      "lon": 116.383404,
      "tags": {
        "addr:city": "北京市",
        "addr:district": "西城区",
        "addr:housenumber": "13",
        "addr:province": "北京市",
        "addr:street": "万明路",
        "amenity": "hospital",
        "healthcare": "hospital",
        "healthcare:speciality": "traditional_chinese_medicine",
        "name": "北京市宣武中医医院",
        "name:zh": "北京市宣武中医医院",
        "name:zh-Hans": "北京市宣武中医医院",
        "name:zh-Hant": "北京市宣武中醫醫院"
      }
    },
    {
      "type": "node",
      "id": 2738812694,
      "lat": 39.8866065,
      "lon": 116.38347,
      "tags": {
        "amenity": "restaurant",
        "name": "东方饭店"
      }
    },
    {
      "type": "node",
      "id": 3111874780,
      "lat": 39.8870305,
      "lon": 116.4113151,
      "tags": {
        "amenity": "restaurant",
        "cuisine": "chinese",
        "name": "大碗居烤鸭店"
      }
    },
    {
      "type": "node",
      "id": 3162661102,
      "lat": 39.8819851,
      "lon": 116.3868296,
      "tags": {
        "name": "潇湘宾馆",
        "name:en": "Xiaoxiang Hotel",
        "name:zh": "潇湘宾馆",
        "tourism": "hotel"
      }
    },
    {
      "type": "node",
      "id": 3296232242,
      "lat": 39.8840005,
      "lon": 116.4141158,
      "tags": {
        "bus": "yes",
        "name": "法华寺",
        "name:zh": "法华寺",
        "public_transport": "stop_position"
      }
    },
    {
      "type": "node",
      "id": 3296248196,
      "lat": 39.8807365,
      "lon": 116.4145714,
      "tags": {
        "bus": "yes",
        "name": "天坛体育场",
        "name:zh": "天坛体育场",
        "public_transport": "stop_position"
      }
    },
    {
      "type": "node",
      "id": 3296248198,
      "lat": 39.8803258,
      "lon": 116.414797,
      "tags": {
        "bus": "yes",
        "name": "天坛体育场",
        "name:zh": "天坛体育场",
        "public_transport": "stop_position"
      }
    },
    {
      "type": "node",
      "id": 3296248202,
      "lat": 39.8744982,
      "lon": 116.4149012,
      "tags": {
        "bus": "yes",
        "name": "东侧路",
        "name:zh": "东侧路",
        "public_transport": "stop_position"
      }
    },
    {
      "type": "node",
      "id": 3362682171,
      "lat": 39.8659196,
      "lon": 116.3930981,
      "tags": {
        "name": "永定门外",
        "name:en": "Outer Yongdingmen",
        "public_transport": "stop_position",
        "railway": "stop",
        "subway": "yes"
      }
    },
    {
      "type": "node",
      "id": 3362682172,
      "lat": 39.8660096,
      "lon": 116.3932085,
      "tags": {
        "name": "永定门外",
        "name:en": "Outer Yongdingmen",
        "public_transport": "stop_position",
        "railway": "stop",
        "subway": "yes"
      }
    },
    {
      "type": "node",
      "id": 3363489801,
      "lat": 39.8636135,
      "lon": 116.4049505,
      "tags": {
        "name": "景泰",
        "name:en": "Jingtai",
        "public_transport": "stop_position",
        "railway": "stop",
        "subway": "yes"
      }
    },
    {
      "type": "node",
      "id": 3363489803,
      "lat": 39.8637061,
      "lon": 116.4049383,
      "tags": {
        "name": "景泰",
        "name:en": "Jingtai",
        "public_transport": "stop_position",
        "railway": "stop",
        "subway": "yes"
      }
    },
    {
      "type": "node",
      "id": 3367857703,
      "lat": 39.8636494,
      "lon": 116.4049409,
      "tags": {
        "name": "景泰",
        "name:en": "Jingtai",
        "name:zh": "景泰",
        "public_transport": "station",
        "railway": "station",
        "station": "subway",
        "subway": "yes",
        "wikidata": "Q21245986",
        "wikipedia:zh": "景泰站 (北京市)"
      }
    },
    {
      "type": "node",
      "id": 3369459839,
      "lat": 39.8912849,
      "lon": 116.4022485,
      "tags": {
        "name": "桥湾",
        "name:en": "Qiaowan",
        "name:zh": "桥湾",
        "public_transport": "station",
        "railway": "station",
        "station": "subway",
        "subway": "yes",
        "wikidata": "Q18654011",
        "wikipedia:zh": "桥湾站 (北京市)"
      }
    },
    {
      "type": "node",
      "id": 3369459846,
      "lat": 39.8917025,
      "lon": 116.4126199,
      "tags": {
        "name": "磁器口",
        "name:en": "Ciqikou",
        "name:ru": "Цыцикоу",
        "name:zh": "磁器口",
        "public_transport": "station",
        "railway": "station",
        "station": "subway",
        "subway": "yes",
        "wikidata": "Q5121330",
        "wikipedia:zh": "磁器口站 (北京市)"
      }
    },
    {
      "type": "node",
      "id": 3369459913,
      "lat": 39.8900482,
      "lon": 116.3930842,
      "tags": {
        "name": "珠市口",
        "name:en": "Zhushikou",
        "name:zh": "珠市口",
        "public_transport": "stop_position",
        "railway": "stop",
        "subway": "yes"
      }
    },
    {
      "type": "node",
      "id": 3369459915,
      "lat": 39.8897724,
      "lon": 116.391255,
      "tags": {
        "name": "珠市口",
        "name:en": "Zhushikou",
        "name:zh": "珠市口",
        "public_transport": "stop_position",
        "railway": "stop",
        "subway": "yes"
      }
    },
    {
      "type": "node",
      "id": 3369459930,
      "lat": 39.891248,
      "lon": 116.4032069,
      "tags": {
        "name": "桥湾",
        "name:en": "Qiaowan",
        "name:zh": "桥湾",
        "public_transport": "stop_position",
        "railway": "stop",
        "subway": "yes"
      }
    },
    {
      "type": "node",
      "id": 3369459936,
      "lat": 39.8913159,
      "lon": 116.401324,
      "tags": {
        "name": "桥湾",
        "name:en": "Qiaowan",
        "name:zh": "桥湾",
        "public_transport": "stop_position",
        "railway": "stop",
        "subway": "yes"
      }
    },
    {
      "type": "node",
      "id": 3369459945,
      "lat": 39.8916421,
      "lon": 116.4126275,
      "tags": {
        "name": "磁器口",
        "name:en": "Ciqikou",
        "name:zh": "磁器口",
        "public_transport": "stop_position",
        "railway": "stop",
        "subway": "yes"
      }
    },
    {
      "type": "node",
      "id": 3369459948,
      "lat": 39.8917862,
      "lon": 116.4126101,
      "tags": {
        "name": "磁器口",
        "name:en": "Ciqikou",
        "name:zh": "磁器口",
        "public_transport": "stop_position",
        "railway": "stop",
        "subway": "yes"
      }
    },
    {
      "type": "node",
      "id": 3953568825,
      "lat": 39.8886836,
      "lon": 116.3848084,
      "tags": {
        "addr:street": "Zhushikou West Avenue",
        "amenity": "atm",
        "brand": "中国工商银行",
        "brand:en": "Industrial and Commercial Bank of China",
        "brand:wikidata": "Q26463",
        "brand:zh": "中国工商银行",
        "operator": "中国工商银行",
        "operator:wikidata": "Q26463"
      }
    },
    {
      "type": "node",
      "id": 3998251325,
      "lat": 39.8717478,
      "lon": 116.3990589,
      "tags": {
        "addr:city": "东城区",
        "addr:housenumber": "9",
        "addr:province": "北京市",
        "addr:street": "永定门东街",
        "brand": "锦江之星",
        "brand:en": "Jinjiang Inn",
        "brand:wikidata": "Q60712573",
        "brand:zh": "锦江之星",
        "name": "锦江之星（北京南站店）",
        "name:en": "Jinjiang Inn",
        "name:zh": "锦江之星",
        "tourism": "hotel"
      }
    },
    {
      "type": "node",
      "id": 4068317605,
      "lat": 39.8942677,
      "lon": 116.391844,
      "tags": {
        "name": "鲜鱼口",
        "public_transport": "stop_position",
        "railway": "tram_stop",
        "tram": "yes"
      }
    },
    {
      "type": "node",
      "id": 4180967108,
      "lat": 39.8836874,
      "lon": 116.414748,
      "tags": {
        "amenity": "fast_food",
        "brand": "肯德基",
        "brand:en": "KFC",
        "brand:wikidata": "Q524757",
        "brand:wikipedia": "zh:肯德基",
        "brand:zh": "肯德基",
        "cuisine": "chicken",
        "name": "肯德基",
        "name:en": "KFC",
        "name:zh": "肯德基",
        "name:zh-Latn-pinyin": "Kěn Dé Jī",
        "takeaway": "yes"
      }
    },
    {
      "type": "node",
      "id": 4196580493,
      "lat": 39.8963093,
      "lon": 116.3998982,
      "tags": {
        "amenity": "restaurant",
        "branch": "前门",
        "cuisine": "chinese",
        "name": "利群烤鸭",
        "name:en": "Li Qun Roast Duck",
        "phone": "67025681"
      }
    },
    {
      "type": "node",
      "id": 4198370589,
      "lat": 39.8859914,
      "lon": 116.4200959,
      "tags": {
        "name:en": "bestay hotel",
        "tourism": "hotel"
      }
    },
    {
      "type": "node",
      "id": 4213474525,
      "lat": 39.8957277,
      "lon": 116.411946,
      "tags": {
        "addr:housenumber": "56",
        "amenity": "restaurant"
      }
    },
    {
      "type": "node",
      "id": 4221081293,
      "lat": 39.8668806,
      "lon": 116.3873076,
      "tags": {
        "railway": "switch",
        "railway:position:exact": "9.51952",
        "ref": "301"
      }
    },
    {
      "type": "node",
      "id": 4221081297,
      "lat": 39.8670421,
      "lon": 116.3889162,
      "tags": {
        "railway": "switch",
        "railway:position:exact": "2.54905",
        "ref": "105"
      }
    },
    {
      "type": "node",
      "id": 4221081301,
      "lat": 39.8671351,
      "lon": 116.3894779,
      "tags": {
        "railway": "switch",
        "railway:position:exact": "2.56947",
        "ref": "103"
      }
    },
    {
      "type": "node",
      "id": 4221081302,
      "lat": 39.8673066,
      "lon": 116.3907264,
      "tags": {
        "railway": "switch",
        "railway:position:exact": "2.69792",
        "ref": "101"
      }
    },
    {
      "type": "node",
      "id": 4275268693,
      "lat": 39.8857003,
      "lon": 116.4165778,
      "tags": {
        "amenity": "restaurant"
      }
    },
    {
      "type": "node",
      "id": 4277538190,
      "lat": 39.8859345,
      "lon": 116.4200953,
      "tags": {
        "shop": "convenience"
      }
    },
    {
      "type": "node",
      "id": 4301877989,
      "lat": 39.8952903,
      "lon": 116.3921168,
      "tags": {
        "addr:full": "北京市东城区前门大街30号",
        "addr:housenumber": "30",
        "addr:street": "前门大街",
        "amenity": "restaurant",
        "branch": "前門店",
        "brand": "全聚德",
        "brand:en": "Quanjude",
        "brand:wikidata": "Q3269017",
        "brand:wikipedia": "zh:全聚德",
        "brand:zh": "全聚德",
        "cuisine": "chinese",
        "name": "全聚德",
        "name:en": "Quanjude",
        "name:zh": "全聚德",
        "start_date": "1864",
        "wheelchair": "yes"
      }
    },
    {
      "type": "node",
      "id": 4301895591,
      "lat": 39.8947299,
      "lon": 116.3920437,
      "tags": {
        "amenity": "restaurant",
        "cuisine": "chinese",
        "name": "都一处",
        "name:en": "Du Yichu",
        "name:zh": "都一处",
        "wheelchair": "limited"
      }
    },
    {
      "type": "node",
      "id": 4326494590,
      "lat": 39.8802411,
      "lon": 116.3908651,
      "tags": {
        "addr:city": "北京市",
        "addr:district": "西城区",
        "addr:housenumber": "17",
        "addr:postcode": "100050",
        "addr:province": "北京市",
        "addr:street": "新农街",
        "name": "瑞洁宾舍酒店",
        "tourism": "hotel"
      }
    },
    {
      "type": "node",
      "id": 4337234189,
      "lat": 39.8950575,
      "lon": 116.3943515,
      "tags": {
        "amenity": "restaurant",
        "brand": "便宜坊",
        "brand:en": "Bianyifang",
        "brand:wikidata": "Q1049599",
        "brand:wikipedia": "zh:便宜坊",
        "brand:zh": "便宜坊",
        "cuisine": "chinese",
        "name": "便宜坊",
        "name:en": "Bianyifang",
        "name:zh": "便宜坊",
        "wheelchair": "yes"
      }
    },
    {
      "type": "node",
      "id": 4342386201,
      "lat": 39.8736148,
      "lon": 116.3984309,
      "tags": {
        "amenity": "parking"
      }
    },
    {
      "type": "node",
      "id": 4342386202,
      "lat": 39.8735942,
      "lon": 116.3978381,
      "tags": {
        "amenity": "parking"
      }
    },
    {
      "type": "node",
      "id": 4342386203,
      "lat": 39.874115,
      "lon": 116.3994689,
      "tags": {
        "amenity": "parking"
      }
    },
    {
      "type": "node",
      "id": 4342398184,
      "lat": 39.875576,
      "lon": 116.3955668,
      "tags": {
        "amenity": "parking"
      }
    },
    {
      "type": "node",
      "id": 4342398186,
      "lat": 39.8752961,
      "lon": 116.3950893,
      "tags": {
        "shop": "convenience"
      }
    },
    {
      "type": "node",
      "id": 4342398950,
      "lat": 39.8735711,
      "lon": 116.3982222,
      "tags": {
        "shop": "convenience"
      }
    },
    {
      "type": "node",
      "id": 4342420884,
      "lat": 39.8755528,
      "lon": 116.399753,
      "tags": {
        "amenity": "toilets"
      }
    },
    {
      "type": "node",
      "id": 4380798190,
      "lat": 39.8857973,
      "lon": 116.4144643,
      "tags": {
        "amenity": "cafe"
      }
    },
    {
      "type": "node",
      "id": 4381897489,
      "lat": 39.8944062,
      "lon": 116.3899939,
      "tags": {
        "amenity": "atm",
        "brand": "中国工商银行",
        "brand:en": "Industrial and Commercial Bank of China",
        "brand:wikidata": "Q26463",
        "brand:wikipedia": "en:Industrial and Commercial Bank of China",
        "brand:zh": "中国工商银行",
        "name": "中国工商银行",
        "name:en": "Industrial and Commercial Bank of China",
        "name:zh": "中国工商银行",
        "opening_hours": "Mo-Su 08:00-22:00",
        "operator": "中国工商银行",
        "operator:wikidata": "Q26463",
        "operator:wikipedia": "en:Industrial and Commercial Bank of China"
      }
    },
    {
      "type": "node",
      "id": 4396996089,
      "lat": 39.8789694,
      "lon": 116.3847307,
      "tags": {
        "addr:city": "北京市",
        "addr:district": "西城区",
        "addr:housenumber": "38",
        "addr:province": "北京市",
        "addr:street": "南纬路",
        "brand": "Holiday Inn Express",
        "brand:wikidata": "Q5880423",
        "name": "北京前门富力智选假日酒店",
        "name:en": "Holiday Inn Express Beijing Temple of Heaven",
        "tourism": "hotel"
      }
    },
    {
      "type": "node",
      "id": 4441895993,
      "lat": 39.8976897,
      "lon": 116.4021073,
      "tags": {
        "brand": "锦江之星",
        "brand:en": "Jinjiang Inn",
        "brand:wikidata": "Q60712573",
        "brand:zh": "锦江之星",
        "name": "锦江之星",
        "name:en": "Jinjiang Inn",
        "name:zh": "锦江之星",
        "tourism": "hotel"
      }
    },
    {
      "type": "node",
      "id": 4445933689,
      "lat": 39.8946744,
      "lon": 116.3928582,
      "tags": {
        "amenity": "restaurant",
        "cuisine": "hotpot",
        "name": "百年前门铜锅涮肉",
        "wheelchair": "no"
      }
    },
    {
      "type": "node",
      "id": 4450096689,
      "lat": 39.8955434,
      "lon": 116.408777,
      "tags": {
        "amenity": "restaurant",
        "name:en": "lao noodles",
        "name:ko": "노북경자장면"
      }
    },
    {
      "type": "node",
      "id": 4454758090,
      "lat": 39.8944985,
      "lon": 116.390172,
      "tags": {
        "name": "大栅栏",
        "name:en": "Dashilan",
        "name:ko": "대책란가",
        "name:th": "ถนนต้าจ้าหลาน",
        "tourism": "attraction",
        "wheelchair": "yes"
      }
    },
    {
      "type": "node",
      "id": 4486955791,
      "lat": 39.8956542,
      "lon": 116.4089231,
      "tags": {
        "amenity": "restaurant",
        "name": "Old Beijing",
        "name:zh": "Old Beijing"
      }
    },
    {
      "type": "node",
      "id": 4511514989,
      "lat": 39.8958898,
      "lon": 116.4013587,
      "tags": {
        "addr:housenumber": "62",
        "name": "北京地下城",
        "name:en": "The Underground City",
        "tourism": "attraction"
      }
    },
    {
      "type": "node",
      "id": 4525670289,
      "lat": 39.8840727,
      "lon": 116.4145757,
      "tags": {
        "amenity": "restaurant",
        "brand": "必胜客",
        "brand:en": "Pizza Hut",
        "brand:wikidata": "Q191615",
        "brand:wikipedia": "zh:必胜客",
        "brand:zh": "必胜客",
        "cuisine": "pizza",
        "name": "必胜客",
        "name:en": "Pizza Hut",
        "name:zh": "必胜客"
      }
    },
    {
      "type": "node",
      "id": 4597570194,
      "lat": 39.8850943,
      "lon": 116.4140147,
      "tags": {
        "amenity": "cafe",
        "brand": "星巴克",
        "brand:en": "Starbucks",
        "brand:wikidata": "Q37158",
        "brand:wikipedia": "zh:星巴克",
        "brand:zh": "星巴克",
        "cuisine": "coffee_shop",
        "internet_access": "wlan",
        "name": "星巴克",
        "name:en": "Starbucks",
        "name:zh": "星巴克",
        "takeaway": "yes"
      }
    },
    {
      "type": "node",
      "id": 4636458389,
      "lat": 39.8795696,
      "lon": 116.4238103,
      "tags": {
        "access": "yes",
        "amenity": "toilets"
      }
    },
    {
      "type": "node",
      "id": 4769095721,
      "lat": 39.8904825,
      "lon": 116.3968582,
      "tags": {
        "addr:full": "北京市东城区珠市口东大街16号",
        "branch": "北京前门珠市口东大街店（原珠市口东大街店）（内宾）",
        "brand": "速8酒店",
        "brand:en": "Super 8",
        "brand:wikidata": "Q5364003",
        "brand:wikipedia": "zh:速8酒店",
        "brand:zh": "速8酒店",
        "name": "速8酒店",
        "name:en": "Super 8",
        "name:zh": "速8酒店",
        "official_name": "Super 8 by Wyndham",
        "ref": "528",
        "tourism": "hotel",
        "website": "http://www.super8.com.cn"
      }
    },
    {
      "type": "node",
      "id": 4769095723,
      "lat": 39.8917972,
      "lon": 116.3913921,
      "tags": {
        "addr:full": "北京市宣武区粮食店街65号（大栅栏购物街南0.5公里）",
        "branch": "北京前门店（内宾）",
        "brand": "速8酒店",
        "brand:en": "Super 8",
        "brand:wikidata": "Q5364003",
        "brand:wikipedia": "zh:速8酒店",
        "brand:zh": "速8酒店",
        "name": "速8酒店",
        "name:en": "Super 8",
        "name:zh": "速8酒店",
        "ref": "196",
        "tourism": "hotel",
        "website": "http://www.super8.com.cn"
      }
    },
    {
      "type": "node",
      "id": 4769095761,
      "lat": 39.8956976,
      "lon": 116.4136921,
      "tags": {
        "addr:full": "北京市崇文门西花市大街126号（国瑞城购物中心南门对面）",
        "branch": "北京崇文门同仁医院店（内宾）",
        "brand": "速8酒店",
        "brand:en": "Super 8",
        "brand:wikidata": "Q5364003",
        "brand:wikipedia": "zh:速8酒店",
        "brand:zh": "速8酒店",
        "name": "速8酒店",
        "name:en": "Super 8",
        "name:zh": "速8酒店",
        "ref": "2034",
        "tourism": "hotel",
        "website": "http://www.super8.com.cn"
      }
    },
    {
      "type": "node",
      "id": 4769095813,
      "lat": 39.8814961,
      "lon": 116.3859921,
      "tags": {
        "addr:city": "北京市",
        "addr:district": "西城区",
        "addr:full": "北京市西城区禄长街头条2号",
        "addr:housenumber": "2",
        "addr:province": "北京市",
        "addr:street": "禄长街头条",
        "branch": "北京天坛西门店（内宾）",
        "brand": "速8酒店",
        "brand:en": "Super 8",
        "brand:wikidata": "Q5364003",
        "brand:wikipedia": "zh:速8酒店",
        "brand:zh": "速8酒店",
        "name": "速8酒店",
        "name:en": "Super 8",
        "name:zh": "速8酒店",
        "official_name": "Super 8 by Wyndham",
        "ref": "604",
        "tourism": "hotel",
        "website": "http://www.super8.com.cn"
      }
    },
    {
      "type": "node",
      "id": 4844392644,
      "lat": 39.8870146,
      "lon": 116.3838306,
      "tags": {
        "shop": "convenience"
      }
    },
    {
      "type": "node",
      "id": 4869954923,
      "lat": 39.8961269,
      "lon": 116.4104263,
      "tags": {
        "amenity": "pharmacy",
        "healthcare": "pharmacy",
        "name:en": "Tongrentang ph"
      }
    },
    {
      "type": "node",
      "id": 4906816621,
      "lat": 39.8868551,
      "lon": 116.3984377,
      "tags": {
        "addr:postcode": "100010",
        "amenity": "restaurant",
        "brand": "东来顺",
        "brand:en": "Dong Lai Shun",
        "brand:wikidata": "Q10870490",
        "brand:wikipedia": "zh:东来顺",
        "brand:zh": "东来顺",
        "cuisine": "chinese;hotpot",
        "diet:halal": "only",
        "name": "东来顺",
        "name:en": "Dong Lai Shun",
        "name:zh": "东来顺"
      }
    },
    {
      "type": "node",
      "id": 4906816622,
      "lat": 39.8948723,
      "lon": 116.3920403,
      "tags": {
        "amenity": "restaurant",
        "branch": "前门大街店",
        "brand": "东来顺",
        "brand:en": "Dong Lai Shun",
        "brand:wikidata": "Q10870490",
        "brand:wikipedia": "zh:东来顺",
        "brand:zh": "东来顺",
        "cuisine": "chinese;hotpot",
        "diet:halal": "only",
        "name": "东来顺",
        "name:en": "Dong Lai Shun",
        "name:zh": "东来顺"
      }
    },
    {
      "type": "node",
      "id": 4941517220,
      "lat": 39.8962176,
      "lon": 116.4119449,
      "tags": {
        "addr:street": "崇文门外大街",
        "amenity": "fast_food",
        "brand": "麦当劳",
        "brand:en": "McDonald's",
        "brand:wikidata": "Q38076",
        "brand:wikipedia": "zh:麦当劳",
        "brand:zh": "麦当劳",
        "brand:zh-Hans": "麦当劳",
        "check_date": "2026-03-04",
        "check_date:opening_hours": "2026-03-04",
        "cuisine": "burger",
        "name": "麦当劳",
        "name:en": "McDonald's",
        "name:zh": "麦当劳",
        "name:zh-Hans": "麦当劳",
        "opening_hours": "Mo-Su 06:00-23:00",
        "takeaway": "yes"
      }
    },
    {
      "type": "node",
      "id": 5068541024,
      "lat": 39.8765999,
      "lon": 116.3843644,
      "tags": {
        "amenity": "parking"
      }
    },
    {
      "type": "node",
      "id": 5068541025,
      "lat": 39.8762788,
      "lon": 116.3842812,
      "tags": {
        "amenity": "parking"
      }
    },
    {
      "type": "node",
      "id": 5073927003,
      "lat": 39.8746629,
      "lon": 116.3810143,
      "tags": {
        "amenity": "parking"
      }
    },
    {
      "type": "node",
      "id": 5135374223,
      "lat": 39.8921513,
      "lon": 116.390642,
      "tags": {
        "amenity": "toilets"
      }
    },
    {
      "type": "node",
      "id": 5135391821,
      "lat": 39.8903744,
      "lon": 116.3849167,
      "tags": {
        "amenity": "toilets"
      }
    },
    {
      "type": "node",
      "id": 5135392021,
      "lat": 39.892056,
      "lon": 116.389161,
      "tags": {
        "amenity": "toilets"
      }
    },
    {
      "type": "node",
      "id": 5150889521,
      "lat": 39.8933831,
      "lon": 116.391926,
      "tags": {
        "name": "前门历史大街",
        "name:en": "Qianmen Historic Street",
        "opening_hours": "24/7",
        "tourism": "attraction"
      }
    },
    {
      "type": "node",
      "id": 5209561873,
      "lat": 39.8853485,
      "lon": 116.3882918,
      "tags": {
        "amenity": "fast_food",
        "brand": "庆丰包子铺",
        "brand:en": "Qingfeng Steamed Dumpling Shop",
        "brand:wikidata": "Q24841010",
        "brand:wikipedia": "zh:庆丰包子铺",
        "brand:zh": "庆丰包子铺",
        "cuisine": "chinese",
        "name": "庆丰包子铺",
        "name:en": "Qingfeng Steamed Dumpling Shop",
        "name:zh": "庆丰包子铺",
        "takeaway": "yes"
      }
    },
    {
      "type": "node",
      "id": 5209561874,
      "lat": 39.8857999,
      "lon": 116.3881143,
      "tags": {
        "amenity": "restaurant",
        "name": "虾吃虾涮"
      }
    },
    {
      "type": "node",
      "id": 5209561875,
      "lat": 39.8857819,
      "lon": 116.3881073,
      "tags": {
        "amenity": "restaurant",
        "name": "护国寺小吃"
      }
    },
    {
      "type": "node",
      "id": 5289709403,
      "lat": 39.8850104,
      "lon": 116.4140668,
      "tags": {
        "amenity": "fast_food",
        "brand": "麦当劳",
        "brand:en": "McDonald's",
        "brand:wikidata": "Q38076",
        "brand:wikipedia": "zh:麦当劳",
        "brand:zh": "麦当劳",
        "brand:zh-Hans": "麦当劳",
        "cuisine": "burger",
        "name": "麦当劳",
        "name:en": "McDonald's",
        "name:zh": "麦当劳",
        "name:zh-Hans": "麦当劳",
        "takeaway": "yes"
      }
    },
    {
      "type": "node",
      "id": 5325709223,
      "lat": 39.8846107,
      "lon": 116.4241578,
      "tags": {
        "addr:housenumber": "57",
        "addr:street": "Xingfu Street",
        "name:en": "Springs Vallay",
        "tourism": "hotel"
      }
    },
    {
      "type": "node",
      "id": 5349977125,
      "lat": 39.8923739,
      "lon": 116.4120531,
      "tags": {
        "amenity": "fast_food",
        "brand": "吉野家",
        "brand:en": "Yoshinoya",
        "brand:ja": "吉野家",
        "brand:wikidata": "Q776272",
        "brand:wikipedia": "ja:吉野家",
        "brand:zh": "吉野家",
        "brand:zh-Hans": "吉野家",
        "brand:zh-Hant": "吉野家",
        "cuisine": "beef_bowl",
        "name": "吉野家",
        "name:en": "Yoshinoya",
        "name:ja": "吉野家",
        "name:zh": "吉野家",
        "name:zh-Hans": "吉野家",
        "name:zh-Hant": "吉野家",
        "takeaway": "yes"
      }
    },
    {
      "type": "node",
      "id": 5349977127,
      "lat": 39.8919287,
      "lon": 116.4082382,
      "tags": {
        "amenity": "bank",
        "brand": "中国建设银行",
        "brand:en": "China Construction Bank",
        "brand:wikidata": "Q26299",
        "brand:wikipedia": "zh:中国建设银行",
        "brand:zh": "中国建设银行",
        "name": "中国建设银行",
        "name:en": "China Construction Bank",
        "name:zh": "中国建设银行"
      }
    },
    {
      "type": "node",
      "id": 5350005021,
      "lat": 39.8924821,
      "lon": 116.4120752,
      "tags": {
        "amenity": "fast_food",
        "brand": "肯德基",
        "brand:en": "KFC",
        "brand:wikidata": "Q524757",
        "brand:wikipedia": "zh:肯德基",
        "brand:zh": "肯德基",
        "cuisine": "chicken",
        "name": "肯德基",
        "name:en": "KFC",
        "name:zh": "肯德基",
        "takeaway": "yes"
      }
    },
    {
      "type": "node",
      "id": 5350005121,
      "lat": 39.8918734,
      "lon": 116.3940144,
      "tags": {
        "brand": "7-Eleven",
        "brand:wikidata": "Q259340",
        "brand:wikipedia": "en:7-Eleven",
        "name": "7-Eleven",
        "name:en": "7 eleven",
        "shop": "convenience"
      }
    },
    {
      "type": "node",
      "id": 5350005122,
      "lat": 39.890611,
      "lon": 116.3938091,
      "tags": {
        "brand": "物美",
        "brand:en": "Wumart",
        "brand:wikidata": "Q8039225",
        "brand:zh": "物美",
        "name": "物美",
        "name:en": "Wumart",
        "name:zh": "物美",
        "shop": "supermarket"
      }
    },
    {
      "type": "node",
      "id": 5454510321,
      "lat": 39.8920239,
      "lon": 116.3897256,
      "tags": {
        "addr:city": "Beijing",
        "addr:housenumber": "22",
        "addr:postcode": "100052",
        "addr:street": "Zhangshan Hutong South",
        "name": "粮仓青年旅舍(天安门店)",
        "name:en": "Granary Youth Hostel",
        "phone": "+86 10 6318 9698",
        "tourism": "hostel"
      }
    },
    {
      "type": "node",
      "id": 5488251022,
      "lat": 39.8838769,
      "lon": 116.4180818,
      "tags": {
        "amenity": "restaurant"
      }
    },
    {
      "type": "node",
      "id": 5770952555,
      "lat": 39.8796172,
      "lon": 116.3862359,
      "tags": {
        "addr:housenumber": "31-15",
        "addr:street": "南纬路",
        "amenity": "cafe",
        "cuisine": "chinese;beef_bowl;local",
        "diet:halal": "yes",
        "name": "穆斯林美食 頂香牛肉面",
        "name:en": "Muslim Special Beef Noodle",
        "name:ru": "Мусульманское кафе"
      }
    },
    {
      "type": "node",
      "id": 5770996453,
      "lat": 39.8788536,
      "lon": 116.3816772,
      "tags": {
        "brand": "物美",
        "brand:en": "Wumart",
        "brand:wikidata": "Q8039225",
        "brand:zh": "物美",
        "name": "物美",
        "name:en": "Wumart",
        "name:ru": "Гипермаркет Wu Mart",
        "name:zh": "物美",
        "opening_hours": "Mo-Su 09:00-23:00",
        "shop": "supermarket"
      }
    },
    {
      "type": "node",
      "id": 5827481417,
      "lat": 39.891089,
      "lon": 116.4072184,
      "tags": {
        "amenity": "bank",
        "brand": "中国工商银行",
        "brand:en": "Industrial and Commercial Bank of China",
        "brand:wikidata": "Q26463",
        "brand:wikipedia": "en:Industrial and Commercial Bank of China",
        "brand:zh": "中国工商银行",
        "name": "中国工商银行",
        "name:en": "Industrial and Commercial Bank of China",
        "name:zh": "中国工商银行"
      }
    },
    {
      "type": "node",
      "id": 5931279085,
      "lat": 39.8798859,
      "lon": 116.3865626,
      "tags": {
        "addr:housenumber": "31",
        "addr:street": "南纬路",
        "amenity": "restaurant",
        "cuisine": "chinese",
        "name": "天橋鴻運樓",
        "name:en": "Beijing Overbridge Hongyunlou Roast Duck Shop",
        "name:zh": "天橋鴻運樓烤鴨店",
        "phone": "+86 10 8316 1729"
      }
    },
    {
      "type": "node",
      "id": 6127436966,
      "lat": 39.8891036,
      "lon": 116.3923108,
      "tags": {
        "name": "珠市口",
        "name:en": "Zhushikou",
        "name:zh": "珠市口",
        "public_transport": "stop_position",
        "railway": "stop",
        "subway": "yes"
      }
    },
    {
      "type": "node",
      "id": 6127436970,
      "lat": 39.8880272,
      "lon": 116.3921589,
      "tags": {
        "name": "珠市口",
        "name:en": "Zhushikou",
        "name:zh": "珠市口",
        "public_transport": "stop_position",
        "railway": "stop",
        "subway": "yes"
      }
    },
    {
      "type": "node",
      "id": 6127437143,
      "lat": 39.8642443,
      "lon": 116.3929582,
      "tags": {
        "name": "永定门外",
        "name:en": "Outer Yongdingmen",
        "public_transport": "stop_position",
        "railway": "stop",
        "subway": "yes"
      }
    },
    {
      "type": "node",
      "id": 6127437144,
      "lat": 39.8652767,
      "lon": 116.3931298,
      "tags": {
        "name": "永定门外",
        "name:en": "Outer Yongdingmen",
        "public_transport": "stop_position",
        "railway": "stop",
        "subway": "yes"
      }
    },
    {
      "type": "node",
      "id": 6155950585,
      "lat": 39.882212,
      "lon": 116.4154752,
      "tags": {
        "amenity": "restaurant",
        "brand": "呷哺呷哺",
        "brand:en": "Xiabuxiabu",
        "brand:wikidata": "Q10866036",
        "brand:wikipedia": "zh:呷哺呷哺",
        "brand:zh": "呷哺呷哺",
        "cuisine": "chinese",
        "name": "呷哺呷哺",
        "name:en": "Xiabuxiabu",
        "name:zh": "呷哺呷哺"
      }
    },
    {
      "type": "node",
      "id": 6172173698,
      "lat": 39.8893117,
      "lon": 116.3921937,
      "tags": {
        "name": "珠市口",
        "name:en": "Zhushikou",
        "name:ru": "Чжушикоу",
        "public_transport": "station",
        "railway": "station",
        "station": "subway",
        "subway": "yes"
      }
    },
    {
      "type": "node",
      "id": 6172173700,
      "lat": 39.8647562,
      "lon": 116.3930393,
      "tags": {
        "name": "永定门外",
        "name:en": "Outer Yongdingmen",
        "name:ru": "Внешний Юндинмэнь",
        "public_transport": "station",
        "railway": "station",
        "station": "subway",
        "subway": "yes",
        "wikidata": "Q21245988",
        "wikipedia": "en:Yongdingmenwai station"
      }
    },
    {
      "type": "node",
      "id": 6210354485,
      "lat": 39.8923615,
      "lon": 116.3913984,
      "tags": {
        "amenity": "restaurant",
        "cuisine": "chinese",
        "name": "正阳门小面馆·家常菜"
      }
    },
    {
      "type": "node",
      "id": 6302593981,
      "lat": 39.8947236,
      "lon": 116.3913677,
      "tags": {
        "amenity": "fast_food",
        "brand": "德克士",
        "brand:en": "Dicos",
        "brand:wikidata": "Q5273883",
        "brand:wikipedia": "zh:德克士",
        "brand:zh": "德克士",
        "cuisine": "burger;chicken",
        "name": "德克士",
        "name:en": "Dicos",
        "name:zh": "德克士",
        "takeaway": "yes",
        "wheelchair": "limited"
      }
    },
    {
      "type": "node",
      "id": 6302629603,
      "lat": 39.8947147,
      "lon": 116.3912527,
      "tags": {
        "amenity": "restaurant",
        "name": "康师傅私房牛肉面(前门店)",
        "wheelchair": "limited"
      }
    },
    {
      "type": "node",
      "id": 6394326885,
      "lat": 39.8862078,
      "lon": 116.4172801,
      "tags": {
        "name": "百时快捷酒店",
        "name:en": "Bestay Express Hotel Beijing Temple of Heaven",
        "tourism": "hotel"
      }
    },
    {
      "type": "node",
      "id": 6487071185,
      "lat": 39.891563,
      "lon": 116.3986684,
      "tags": {
        "amenity": "atm",
        "brand": "中国工商银行",
        "brand:en": "Industrial and Commercial Bank of China",
        "brand:wikidata": "Q26463",
        "brand:zh": "中国工商银行",
        "opening_hours": "24/7",
        "operator": "中国工商银行",
        "operator:wikidata": "Q26463"
      }
    },
    {
      "type": "node",
      "id": 6488102425,
      "lat": 39.8806517,
      "lon": 116.3925037,
      "tags": {
        "name": "天桥",
        "name:en": "Tian Qiao",
        "name:ru": "Тяньцяо",
        "public_transport": "station",
        "railway": "station",
        "station": "subway",
        "subway": "yes",
        "wikidata": "Q19852289"
      }
    },
    {
      "type": "node",
      "id": 6536283669,
      "lat": 39.8961788,
      "lon": 116.4113731,
      "tags": {
        "addr:street": "崇文门外大街",
        "amenity": "restaurant",
        "brand": "海底捞火锅",
        "brand:en": "Haidilao Hot Pot",
        "brand:wikidata": "Q5638920",
        "brand:zh": "海底捞火锅",
        "brand:zh-Hans": "海底捞火锅",
        "brand:zh-Hant": "海底撈火鍋",
        "check_date": "2026-03-04",
        "check_date:opening_hours": "2026-03-04",
        "cuisine": "chinese;hot_pot",
        "internet_access": "wlan",
        "name": "海底捞火锅",
        "name:en": "Haidilao Hot Pot",
        "name:zh": "海底捞火锅",
        "name:zh-Hans": "海底捞火锅",
        "name:zh-Hant": "海底撈火鍋",
        "opening_hours": "Mo-Su 10:00-07:00"
      }
    },
    {
      "type": "node",
      "id": 6536948386,
      "lat": 39.8811802,
      "lon": 116.3918828,
      "tags": {
        "amenity": "restaurant",
        "cuisine": "pizza",
        "name": "LINES"
      }
    },
    {
      "type": "node",
      "id": 6536948387,
      "lat": 39.8790831,
      "lon": 116.3920774,
      "tags": {
        "amenity": "fast_food",
        "brand": "肯德基",
        "brand:en": "KFC",
        "brand:wikidata": "Q524757",
        "brand:wikipedia": "zh:肯德基",
        "brand:zh": "肯德基",
        "cuisine": "chicken",
        "name": "肯德基",
        "name:en": "KFC",
        "name:zh": "肯德基",
        "takeaway": "yes"
      }
    },
    {
      "type": "node",
      "id": 6536975585,
      "lat": 39.89212,
      "lon": 116.3935575,
      "tags": {
        "amenity": "fast_food",
        "brand": "肯德基",
        "brand:en": "KFC",
        "brand:wikidata": "Q524757",
        "brand:wikipedia": "zh:肯德基",
        "brand:zh": "肯德基",
        "cuisine": "chicken",
        "name": "肯德基",
        "name:en": "KFC",
        "name:zh": "肯德基",
        "takeaway": "yes"
      }
    },
    {
      "type": "node",
      "id": 6594314433,
      "lat": 39.885806,
      "lon": 116.414075,
      "tags": {
        "amenity": "restaurant",
        "name": "泉兴居餐厅",
        "name:en": "Quanxingju"
      }
    },
    {
      "type": "node",
      "id": 6621504085,
      "lat": 39.8949248,
      "lon": 116.3923458,
      "tags": {
        "amenity": "restaurant",
        "name": "桂味",
        "wheelchair": "limited"
      }
    },
    {
      "type": "node",
      "id": 6621504185,
      "lat": 39.8886367,
      "lon": 116.3954304,
      "tags": {
        "name": "Pekin apartamento",
        "tourism": "apartment"
      }
    },
    {
      "type": "node",
      "id": 6635174786,
      "lat": 39.8792009,
      "lon": 116.3872268,
      "tags": {
        "addr:city": "北京市",
        "addr:district": "西城区",
        "addr:housenumber": "4",
        "addr:province": "北京市",
        "addr:street": "南纬路南巷",
        "name": "Yitel",
        "phone": "+86 10 6315 5056;+86 10 6315 6558;+86 400 821 3333",
        "tourism": "hotel"
      }
    },
    {
      "type": "node",
      "id": 6685892685,
      "lat": 39.8792021,
      "lon": 116.3885285,
      "tags": {
        "name:cs": "Potraviny",
        "name:en": "Weiyao Center",
        "shop": "department_store"
      }
    },
    {
      "type": "node",
      "id": 6685940385,
      "lat": 39.8762056,
      "lon": 116.3955027,
      "tags": {
        "name": "Xinleilei Store",
        "name:cs": "Obchod",
        "name:en": "Xinleilei Store",
        "shop": "department_store"
      }
    },
    {
      "type": "node",
      "id": 6738512485,
      "lat": 39.8936354,
      "lon": 116.3937649,
      "tags": {
        "addr:housenumber": "120",
        "addr:postcode": "100051",
        "addr:street": "大江胡同",
        "internet_access": "wlan",
        "name": "北京前门四合院漫心府",
        "name:en": "Manxim Courtyard Hotel",
        "name:zh": "北京前门四合院漫心府",
        "tourism": "hotel"
      }
    },
    {
      "type": "node",
      "id": 6813465111,
      "lat": 39.8940804,
      "lon": 116.3920697,
      "tags": {
        "amenity": "restaurant",
        "cuisine": "hotpot",
        "name": "南门铜锅涮肉"
      }
    },
    {
      "type": "node",
      "id": 6813770677,
      "lat": 39.8804644,
      "lon": 116.3919872,
      "tags": {
        "amenity": "cafe",
        "name": "King"
      }
    },
    {
      "type": "node",
      "id": 6813771147,
      "lat": 39.8812872,
      "lon": 116.3918369,
      "tags": {
        "amenity": "fast_food",
        "brand": "赛百味",
        "brand:en": "Subway",
        "brand:wikidata": "Q244457",
        "brand:wikipedia": "zh:赛百味",
        "brand:zh": "赛百味",
        "cuisine": "sandwich",
        "name": "赛百味",
        "name:en": "Subway",
        "name:zh": "赛百味",
        "takeaway": "yes"
      }
    },
    {
      "type": "node",
      "id": 6813786033,
      "lat": 39.8767944,
      "lon": 116.3853876,
      "tags": {
        "amenity": "toilets"
      }
    },
    {
      "type": "node",
      "id": 7041925816,
      "lat": 39.8956064,
      "lon": 116.4067117,
      "tags": {
        "amenity": "bank",
        "brand": "宁波银行",
        "brand:en": "Bank of Ningbo",
        "brand:wikidata": "Q4856166",
        "brand:wikipedia": "zh:宁波银行",
        "brand:zh": "宁波银行",
        "name": "宁波银行",
        "name:en": "Bank of Ningbo",
        "name:zh": "宁波银行"
      }
    },
    {
      "type": "node",
      "id": 7130198885,
      "lat": 39.8920439,
      "lon": 116.39214,
      "tags": {
        "amenity": "fast_food",
        "brand": "肯德基",
        "brand:en": "KFC",
        "brand:wikidata": "Q524757",
        "brand:wikipedia": "zh:肯德基",
        "brand:zh": "肯德基",
        "cuisine": "chicken",
        "name": "肯德基",
        "name:en": "KFC",
        "name:zh": "肯德基",
        "takeaway": "yes"
      }
    },
    {
      "type": "node",
      "id": 7149581578,
      "lat": 39.8798917,
      "lon": 116.3934794,
      "tags": {
        "railway": "subway_entrance",
        "ref": "C",
        "wheelchair": "no"
      }
    },
    {
      "type": "node",
      "id": 7149581579,
      "lat": 39.8901127,
      "lon": 116.3913645,
      "tags": {
        "railway": "subway_entrance",
        "ref": "A"
      }
    },
    {
      "type": "node",
      "id": 7448620587,
      "lat": 39.8940365,
      "lon": 116.4119618,
      "tags": {
        "amenity": "bank",
        "brand": "中国民生银行",
        "brand:en": "China Minsheng Bank",
        "brand:wikidata": "Q911543",
        "brand:wikipedia": "en:China Minsheng Bank",
        "brand:zh": "中国民生银行",
        "name": "中国民生银行",
        "name:en": "China Minsheng Bank",
        "name:zh": "中国民生银行"
      }
    },
    {
      "type": "node",
      "id": 7448620588,
      "lat": 39.8942546,
      "lon": 116.4117258,
      "tags": {
        "amenity": "bank",
        "brand": "北京农商银行",
        "brand:en": "Beijing Rural Commercial Bank",
        "brand:wikidata": "Q10902046",
        "brand:zh": "北京农商银行",
        "name": "北京农商银行",
        "name:en": "Beijing Rural Commercial Bank",
        "name:zh": "北京农商银行"
      }
    },
    {
      "type": "node",
      "id": 7589835310,
      "lat": 39.8905896,
      "lon": 116.393514,
      "tags": {
        "amenity": "fast_food",
        "brand": "吉野家",
        "brand:en": "Yoshinoya",
        "brand:ja": "吉野家",
        "brand:wikidata": "Q776272",
        "brand:wikipedia": "ja:吉野家",
        "brand:zh": "吉野家",
        "brand:zh-Hans": "吉野家",
        "brand:zh-Hant": "吉野家",
        "cuisine": "beef_bowl",
        "name": "吉野家",
        "name:en": "Yoshinoya",
        "name:ja": "吉野家",
        "name:zh": "吉野家",
        "name:zh-Hans": "吉野家",
        "name:zh-Hant": "吉野家",
        "takeaway": "yes"
      }
    },
    {
      "type": "node",
      "id": 7589835311,
      "lat": 39.8906177,
      "lon": 116.3936339,
      "tags": {
        "amenity": "cafe",
        "brand": "一点点",
        "brand:en": "alittle-tea",
        "brand:wikidata": "Q106926258",
        "brand:wikipedia": "zh:五十嵐 (臺灣)",
        "brand:zh": "一点点",
        "cuisine": "bubble_tea",
        "name": "一点点",
        "name:en": "alittle-tea",
        "name:zh": "一点点",
        "takeaway": "yes"
      }
    },
    {
      "type": "node",
      "id": 7589851479,
      "lat": 39.8899339,
      "lon": 116.3937853,
      "tags": {
        "amenity": "fast_food",
        "brand": "肯德基",
        "brand:en": "KFC",
        "brand:wikidata": "Q524757",
        "brand:wikipedia": "zh:肯德基",
        "brand:zh": "肯德基",
        "cuisine": "chicken",
        "name": "肯德基",
        "name:en": "KFC",
        "name:zh": "肯德基",
        "takeaway": "yes"
      }
    },
    {
      "type": "node",
      "id": 7589853855,
      "lat": 39.8898751,
      "lon": 116.3951282,
      "tags": {
        "brand": "7-Eleven",
        "brand:wikidata": "Q259340",
        "brand:wikipedia": "en:7-Eleven",
        "name": "7-Eleven",
        "shop": "convenience"
      }
    },
    {
      "type": "node",
      "id": 7589864648,
      "lat": 39.8876554,
      "lon": 116.3925151,
      "tags": {
        "railway": "subway_entrance",
        "ref": "F"
      }
    },
    {
      "type": "node",
      "id": 7589864649,
      "lat": 39.8876076,
      "lon": 116.3919485,
      "tags": {
        "railway": "subway_entrance",
        "ref": "G"
      }
    },
    {
      "type": "node",
      "id": 7589864650,
      "lat": 39.8890723,
      "lon": 116.3915609,
      "tags": {
        "railway": "subway_entrance",
        "ref": "E"
      }
    },
    {
      "type": "node",
      "id": 7589864651,
      "lat": 39.8891672,
      "lon": 116.39103,
      "tags": {
        "railway": "subway_entrance",
        "ref": "D"
      }
    },
    {
      "type": "node",
      "id": 7589864652,
      "lat": 39.8898543,
      "lon": 116.3933391,
      "tags": {
        "railway": "subway_entrance",
        "ref": "C"
      }
    },
    {
      "type": "node",
      "id": 7591776903,
      "lat": 39.8809168,
      "lon": 116.4051061,
      "tags": {
        "information": "map",
        "map_type": "yes",
        "tourism": "information"
      }
    },
    {
      "type": "node",
      "id": 7591777375,
      "lat": 39.8783578,
      "lon": 116.4027695,
      "tags": {
        "information": "map",
        "tourism": "information"
      }
    },
    {
      "type": "node",
      "id": 7591781952,
      "lat": 39.884643,
      "lon": 116.4144338,
      "tags": {
        "amenity": "fast_food",
        "brand": "赛百味",
        "brand:en": "Subway",
        "brand:wikidata": "Q244457",
        "brand:wikipedia": "zh:赛百味",
        "brand:zh": "赛百味",
        "cuisine": "sandwich",
        "level": "-1",
        "name": "赛百味",
        "name:en": "Subway",
        "name:zh": "赛百味",
        "takeaway": "yes"
      }
    },
    {
      "type": "node",
      "id": 7591783656,
      "lat": 39.879934,
      "lon": 116.4026707,
      "tags": {
        "information": "map",
        "tourism": "information"
      }
    },
    {
      "type": "node",
      "id": 7591783770,
      "lat": 39.8846095,
      "lon": 116.41431,
      "tags": {
        "amenity": "cafe",
        "name": "Bondi Cafe",
        "outdoor_seating": "yes"
      }
    },
    {
      "type": "node",
      "id": 7694610156,
      "lat": 39.8912908,
      "lon": 116.3920197,
      "tags": {
        "description": "有轨电车",
        "railway": "level_crossing"
      }
    },
    {
      "type": "node",
      "id": 7694610157,
      "lat": 39.8912924,
      "lon": 116.3921008,
      "tags": {
        "description": "有轨电车",
        "railway": "level_crossing"
      }
    },
    {
      "type": "node",
      "id": 7694610158,
      "lat": 39.8940078,
      "lon": 116.3919628,
      "tags": {
        "description": "有轨电车",
        "railway": "level_crossing"
      }
    },
    {
      "type": "node",
      "id": 7694610159,
      "lat": 39.8946545,
      "lon": 116.391926,
      "tags": {
        "description": "有轨电车",
        "railway": "level_crossing"
      }
    },
    {
      "type": "node",
      "id": 7694610160,
      "lat": 39.8946665,
      "lon": 116.3918194,
      "tags": {
        "description": "有轨电车",
        "railway": "level_crossing"
      }
    },
    {
      "type": "node",
      "id": 7715064726,
      "lat": 39.8838434,
      "lon": 116.4144595,
      "tags": {
        "bus": "yes",
        "highway": "bus_stop",
        "name": "法华寺",
        "name:zh": "法华寺",
        "public_transport": "platform"
      }
    },
    {
      "type": "node",
      "id": 7715084462,
      "lat": 39.8884899,
      "lon": 116.4129621,
      "tags": {
        "bus": "yes",
        "highway": "bus_stop",
        "name": "红桥路口北",
        "name:zh": "红桥路口北",
        "public_transport": "platform"
      }
    },
    {
      "type": "node",
      "id": 7715098639,
      "lat": 39.8803189,
      "lon": 116.4148694,
      "tags": {
        "bus": "yes",
        "highway": "bus_stop",
        "name": "天坛体育场",
        "name:zh": "天坛体育场",
        "public_transport": "platform"
      }
    },
    {
      "type": "node",
      "id": 7896842490,
      "lat": 39.8822567,
      "lon": 116.4145694,
      "tags": {
        "name": "天坛东门",
        "name:de": "Osttor des Himmelstempels",
        "name:en": "East Gate of Temple of Heaven",
        "name:ru": "Восточные ворота Храма Неба",
        "name:zh": "天坛东门",
        "public_transport": "station",
        "railway": "station",
        "station": "subway",
        "subway": "yes"
      }
    },
    {
      "type": "node",
      "id": 8434279110,
      "lat": 39.8872466,
      "lon": 116.3924549,
      "tags": {
        "bus": "yes",
        "highway": "bus_stop",
        "name": "珠市口南",
        "name:zh": "珠市口南",
        "public_transport": "platform"
      }
    },
    {
      "type": "node",
      "id": 9015750655,
      "lat": 39.8884604,
      "lon": 116.3855779,
      "tags": {
        "bus": "yes",
        "name": "万明路",
        "name:zh": "万明路",
        "public_transport": "stop_position"
      }
    },
    {
      "type": "node",
      "id": 9055664190,
      "lat": 39.878964,
      "lon": 116.425424,
      "tags": {
        "amenity": "toilets"
      }
    },
    {
      "type": "node",
      "id": 9055664368,
      "lat": 39.8795485,
      "lon": 116.4236178,
      "tags": {
        "access": "customers",
        "amenity": "toilets"
      }
    },
    {
      "type": "node",
      "id": 9081669444,
      "lat": 39.8782471,
      "lon": 116.3917613,
      "tags": {
        "bus": "yes",
        "name": "天坛西门",
        "name:zh": "天坛西门",
        "public_transport": "stop_position"
      }
    },
    {
      "type": "node",
      "id": 9116718003,
      "lat": 39.8801299,
      "lon": 116.4151026,
      "tags": {
        "railway": "subway_entrance",
        "ref": "C"
      }
    },
    {
      "type": "node",
      "id": 9116718005,
      "lat": 39.8822988,
      "lon": 116.4151836,
      "tags": {
        "railway": "subway_entrance",
        "ref": "B"
      }
    },
    {
      "type": "node",
      "id": 9120014682,
      "lat": 39.8937538,
      "lon": 116.3914043,
      "tags": {
        "amenity": "restaurant",
        "name": "九门轩烤鸭",
        "name:en": "Jiumenxuan"
      }
    },
    {
      "type": "node",
      "id": 9326212118,
      "lat": 39.8632972,
      "lon": 116.3938379,
      "tags": {
        "bus": "yes",
        "highway": "bus_stop",
        "name": "沙子口",
        "name:zh": "沙子口",
        "public_transport": "platform"
      }
    },
    {
      "type": "node",
      "id": 9326245467,
      "lat": 39.8720544,
      "lon": 116.3920525,
      "tags": {
        "bus": "yes",
        "name": "永定门内",
        "name:zh": "永定门内",
        "public_transport": "stop_position"
      }
    },
    {
      "type": "node",
      "id": 9326245468,
      "lat": 39.8719218,
      "lon": 116.3920496,
      "tags": {
        "bus": "yes",
        "highway": "bus_stop",
        "name": "永定门内",
        "name:zh": "永定门内",
        "public_transport": "platform"
      }
    },
    {
      "type": "node",
      "id": 9326245469,
      "lat": 39.8720509,
      "lon": 116.3919956,
      "tags": {
        "bus": "yes",
        "highway": "bus_stop",
        "name": "永定门内",
        "name:zh": "永定门内",
        "public_transport": "platform"
      }
    },
    {
      "type": "node",
      "id": 9326249183,
      "lat": 39.8725056,
      "lon": 116.3939533,
      "tags": {
        "bus": "yes",
        "name": "永定门内",
        "name:zh": "永定门内",
        "public_transport": "stop_position"
      }
    },
    {
      "type": "node",
      "id": 9326249184,
      "lat": 39.872343,
      "lon": 116.3939103,
      "tags": {
        "bus": "yes",
        "name": "永定门内",
        "name:zh": "永定门内",
        "public_transport": "stop_position"
      }
    },
    {
      "type": "node",
      "id": 9326249185,
      "lat": 39.8719783,
      "lon": 116.3938316,
      "tags": {
        "bus": "yes",
        "name": "永定门内",
        "name:zh": "永定门内",
        "public_transport": "stop_position"
      }
    },
    {
      "type": "node",
      "id": 9326249186,
      "lat": 39.871957,
      "lon": 116.3940203,
      "tags": {
        "bus": "yes",
        "highway": "bus_stop",
        "name": "永定门内",
        "name:zh": "永定门内",
        "public_transport": "platform"
      }
    },
    {
      "type": "node",
      "id": 9326249187,
      "lat": 39.8724912,
      "lon": 116.3940431,
      "tags": {
        "bus": "yes",
        "highway": "bus_stop",
        "name": "永定门内",
        "name:zh": "永定门内",
        "public_transport": "platform"
      }
    },
    {
      "type": "node",
      "id": 9326249188,
      "lat": 39.8723008,
      "lon": 116.3939908,
      "tags": {
        "bus": "yes",
        "highway": "bus_stop",
        "name": "永定门内",
        "name:zh": "永定门内",
        "public_transport": "platform"
      }
    },
    {
      "type": "node",
      "id": 9326259774,
      "lat": 39.8748464,
      "lon": 116.3913924,
      "tags": {
        "bus": "yes",
        "name": "先农坛",
        "name:zh": "先农坛",
        "public_transport": "stop_position"
      }
    },
    {
      "type": "node",
      "id": 9326259775,
      "lat": 39.8746733,
      "lon": 116.3913981,
      "tags": {
        "bus": "yes",
        "name": "先农坛",
        "name:zh": "先农坛",
        "public_transport": "stop_position"
      }
    },
    {
      "type": "node",
      "id": 9326259776,
      "lat": 39.8747885,
      "lon": 116.3913086,
      "tags": {
        "bus": "yes",
        "highway": "bus_stop",
        "name": "先农坛",
        "name:zh": "先农坛",
        "public_transport": "platform"
      }
    },
    {
      "type": "node",
      "id": 9326259777,
      "lat": 39.8746609,
      "lon": 116.391318,
      "tags": {
        "bus": "yes",
        "highway": "bus_stop",
        "name": "先农坛",
        "name:zh": "先农坛",
        "public_transport": "platform"
      }
    },
    {
      "type": "node",
      "id": 9326259778,
      "lat": 39.8761985,
      "lon": 116.394031,
      "tags": {
        "bus": "yes",
        "name": "先农坛",
        "name:zh": "先农坛",
        "name:zh-Hans": "先农坛",
        "name:zh-Hant": "先農壇",
        "public_transport": "stop_position"
      }
    },
    {
      "type": "node",
      "id": 9326259779,
      "lat": 39.8764918,
      "lon": 116.3940217,
      "tags": {
        "bus": "yes",
        "name": "先农坛",
        "name:zh": "先农坛",
        "name:zh-Hans": "先农坛",
        "name:zh-Hant": "先農壇",
        "public_transport": "stop_position"
      }
    },
    {
      "type": "node",
      "id": 9326259780,
      "lat": 39.8762386,
      "lon": 116.3941732,
      "tags": {
        "bus": "yes",
        "highway": "bus_stop",
        "name": "先农坛",
        "name:zh": "先农坛",
        "name:zh-Hans": "先农坛",
        "name:zh-Hant": "先農壇",
        "public_transport": "platform"
      }
    },
    {
      "type": "node",
      "id": 9326259781,
      "lat": 39.8764754,
      "lon": 116.3941517,
      "tags": {
        "bus": "yes",
        "highway": "bus_stop",
        "name": "先农坛",
        "name:zh": "先农坛",
        "name:zh-Hans": "先农坛",
        "name:zh-Hant": "先農壇",
        "public_transport": "platform"
      }
    },
    {
      "type": "node",
      "id": 9326259782,
      "lat": 39.8763652,
      "lon": 116.3942027,
      "tags": {
        "bus": "yes",
        "name": "先农坛",
        "name:zh": "先农坛",
        "name:zh-Hans": "先农坛",
        "name:zh-Hant": "先農壇",
        "public_transport": "stop_position"
      }
    },
    {
      "type": "node",
      "id": 9326292261,
      "lat": 39.8782816,
      "lon": 116.3917136,
      "tags": {
        "bus": "yes",
        "highway": "bus_stop",
        "name": "天坛西门",
        "name:zh": "天坛西门",
        "public_transport": "platform"
      }
    },
    {
      "type": "node",
      "id": 9326292262,
      "lat": 39.878401,
      "lon": 116.3918504,
      "tags": {
        "bus": "yes",
        "highway": "bus_stop",
        "name": "天坛西门",
        "name:zh": "天坛西门",
        "public_transport": "platform"
      }
    },
    {
      "type": "node",
      "id": 9326292263,
      "lat": 39.8785718,
      "lon": 116.3919765,
      "tags": {
        "bus": "yes",
        "highway": "bus_stop",
        "name": "天坛西门",
        "name:zh": "天坛西门",
        "public_transport": "platform"
      }
    },
    {
      "type": "node",
      "id": 9326294557,
      "lat": 39.8807433,
      "lon": 116.3929394,
      "tags": {
        "bus": "yes",
        "highway": "bus_stop",
        "name": "天坛西门",
        "name:zh": "天坛西门",
        "public_transport": "platform"
      }
    },
    {
      "type": "node",
      "id": 9326306839,
      "lat": 39.8834149,
      "lon": 116.3920355,
      "tags": {
        "bus": "yes",
        "highway": "bus_stop",
        "name": "天桥",
        "name:zh": "天桥",
        "public_transport": "platform"
      }
    },
    {
      "type": "node",
      "id": 9326306840,
      "lat": 39.8838739,
      "lon": 116.3926727,
      "tags": {
        "bus": "yes",
        "name": "天桥",
        "name:zh": "天桥",
        "public_transport": "stop_position"
      }
    },
    {
      "type": "node",
      "id": 9326306841,
      "lat": 39.8838739,
      "lon": 116.3928026,
      "tags": {
        "bus": "yes",
        "highway": "bus_stop",
        "name": "天桥",
        "name:zh": "天桥",
        "public_transport": "platform"
      }
    },
    {
      "type": "node",
      "id": 9326306842,
      "lat": 39.883172,
      "lon": 116.392873,
      "tags": {
        "bus": "yes",
        "name": "天桥",
        "name:zh": "天桥",
        "public_transport": "stop_position"
      }
    },
    {
      "type": "node",
      "id": 9326306843,
      "lat": 39.8831762,
      "lon": 116.3929448,
      "tags": {
        "bus": "yes",
        "highway": "bus_stop",
        "name": "天桥",
        "name:zh": "天桥",
        "public_transport": "platform"
      }
    },
    {
      "type": "node",
      "id": 9326306844,
      "lat": 39.8828489,
      "lon": 116.3928321,
      "tags": {
        "bus": "yes",
        "highway": "bus_stop",
        "name": "天桥",
        "name:zh": "天桥",
        "public_transport": "platform"
      }
    },
    {
      "type": "node",
      "id": 9326306845,
      "lat": 39.8829745,
      "lon": 116.3928294,
      "tags": {
        "bus": "yes",
        "highway": "bus_stop",
        "name": "天桥",
        "name:zh": "天桥",
        "public_transport": "platform"
      }
    },
    {
      "type": "node",
      "id": 9326306846,
      "lat": 39.8829714,
      "lon": 116.3927249,
      "tags": {
        "bus": "yes",
        "name": "天桥",
        "name:zh": "天桥",
        "public_transport": "stop_position"
      }
    },
    {
      "type": "node",
      "id": 9326357621,
      "lat": 39.888225,
      "lon": 116.392039,
      "tags": {
        "bus": "yes",
        "name": "珠市口南",
        "name:zh": "珠市口南",
        "public_transport": "stop_position"
      }
    },
    {
      "type": "node",
      "id": 9326357622,
      "lat": 39.8883628,
      "lon": 116.3920354,
      "tags": {
        "bus": "yes",
        "name": "珠市口南",
        "name:zh": "珠市口南",
        "public_transport": "stop_position"
      }
    },
    {
      "type": "node",
      "id": 9326357623,
      "lat": 39.8884991,
      "lon": 116.3919827,
      "tags": {
        "bus": "yes",
        "highway": "bus_stop",
        "name": "珠市口南",
        "name:zh": "珠市口南",
        "public_transport": "platform"
      }
    },
    {
      "type": "node",
      "id": 9326357624,
      "lat": 39.888362,
      "lon": 116.391989,
      "tags": {
        "bus": "yes",
        "highway": "bus_stop",
        "name": "珠市口南",
        "name:zh": "珠市口南",
        "public_transport": "platform"
      }
    },
    {
      "type": "node",
      "id": 9326357625,
      "lat": 39.8897249,
      "lon": 116.3922462,
      "tags": {
        "bus": "yes",
        "name": "珠市口南",
        "name:zh": "珠市口南",
        "public_transport": "stop_position"
      }
    },
    {
      "type": "node",
      "id": 9326357626,
      "lat": 39.8895993,
      "lon": 116.3922362,
      "tags": {
        "bus": "yes",
        "name": "珠市口南",
        "name:zh": "珠市口南",
        "public_transport": "stop_position"
      }
    },
    {
      "type": "node",
      "id": 9326357627,
      "lat": 39.8873811,
      "lon": 116.39245,
      "tags": {
        "bus": "yes",
        "highway": "bus_stop",
        "name": "珠市口南",
        "name:zh": "珠市口南",
        "public_transport": "platform"
      }
    },
    {
      "type": "node",
      "id": 9327403844,
      "lat": 39.8893834,
      "lon": 116.3894163,
      "tags": {
        "bus": "yes",
        "highway": "bus_stop",
        "name": "珠市口西",
        "name:zh": "珠市口西",
        "public_transport": "platform"
      }
    },
    {
      "type": "node",
      "id": 9327403845,
      "lat": 39.8907221,
      "lon": 116.3960011,
      "tags": {
        "bus": "yes",
        "name": "过街楼",
        "name:zh": "过街楼",
        "public_transport": "stop_position"
      }
    },
    {
      "type": "node",
      "id": 9327403846,
      "lat": 39.8906548,
      "lon": 116.3960295,
      "tags": {
        "bus": "yes",
        "highway": "bus_stop",
        "name": "过街楼",
        "name:zh": "过街楼",
        "public_transport": "platform"
      }
    },
    {
      "type": "node",
      "id": 9327403847,
      "lat": 39.8903929,
      "lon": 116.3933203,
      "tags": {
        "bus": "yes",
        "highway": "bus_stop",
        "name": "过街楼",
        "name:zh": "过街楼",
        "public_transport": "platform"
      }
    },
    {
      "type": "node",
      "id": 9327458934,
      "lat": 39.8946929,
      "lon": 116.3949618,
      "tags": {
        "bus": "yes",
        "highway": "bus_stop",
        "name": "大栅栏",
        "name:zh": "大栅栏",
        "public_transport": "platform",
        "shelter": "yes"
      }
    },
    {
      "type": "node",
      "id": 9327458935,
      "lat": 39.894553,
      "lon": 116.3949618,
      "tags": {
        "bus": "yes",
        "highway": "bus_stop",
        "name": "大栅栏",
        "name:zh": "大栅栏",
        "public_transport": "platform",
        "shelter": "yes"
      }
    },
    {
      "type": "node",
      "id": 9327458936,
      "lat": 39.8945581,
      "lon": 116.3948762,
      "tags": {
        "bus": "yes",
        "name": "大栅栏",
        "name:zh": "大栅栏",
        "public_transport": "stop_position"
      }
    },
    {
      "type": "node",
      "id": 9327458937,
      "lat": 39.8947001,
      "lon": 116.3948754,
      "tags": {
        "bus": "yes",
        "name": "大栅栏",
        "name:zh": "大栅栏",
        "public_transport": "stop_position"
      }
    },
    {
      "type": "node",
      "id": 9327458938,
      "lat": 39.8924146,
      "lon": 116.3883536,
      "tags": {
        "bus": "yes",
        "name": "大栅栏",
        "name:zh": "大栅栏",
        "public_transport": "stop_position"
      }
    },
    {
      "type": "node",
      "id": 9327458939,
      "lat": 39.892421,
      "lon": 116.3882723,
      "tags": {
        "bus": "yes",
        "highway": "bus_stop",
        "name": "大栅栏",
        "name:zh": "大栅栏",
        "public_transport": "platform"
      }
    },
    {
      "type": "node",
      "id": 9327458940,
      "lat": 39.8926773,
      "lon": 116.3883759,
      "tags": {
        "bus": "yes",
        "name": "大栅栏",
        "name:zh": "大栅栏",
        "public_transport": "stop_position"
      }
    },
    {
      "type": "node",
      "id": 9327458941,
      "lat": 39.8926772,
      "lon": 116.3882911,
      "tags": {
        "bus": "yes",
        "highway": "bus_stop",
        "name": "大栅栏",
        "name:zh": "大栅栏",
        "public_transport": "platform"
      }
    },
    {
      "type": "node",
      "id": 9327458942,
      "lat": 39.8902738,
      "lon": 116.3886916,
      "tags": {
        "bus": "yes",
        "name": "煤市街南口",
        "name:zh": "煤市街南口",
        "public_transport": "stop_position"
      }
    },
    {
      "type": "node",
      "id": 9327458943,
      "lat": 39.8902653,
      "lon": 116.3885634,
      "tags": {
        "bus": "yes",
        "highway": "bus_stop",
        "name": "煤市街南口",
        "name:zh": "煤市街南口",
        "public_transport": "platform"
      }
    },
    {
      "type": "node",
      "id": 9327518317,
      "lat": 39.8966581,
      "lon": 116.3945112,
      "tags": {
        "bus": "yes",
        "highway": "bus_stop",
        "name": "前门",
        "name:zh": "前门",
        "public_transport": "platform",
        "shelter": "yes"
      }
    },
    {
      "type": "node",
      "id": 9329203101,
      "lat": 39.8653063,
      "lon": 116.3930429,
      "tags": {
        "bus": "yes",
        "name": "永定门外",
        "name:zh": "永定门外",
        "public_transport": "stop_position"
      }
    },
    {
      "type": "node",
      "id": 9329203102,
      "lat": 39.8652881,
      "lon": 116.3929448,
      "tags": {
        "bus": "yes",
        "highway": "bus_stop",
        "name": "永定门外",
        "name:zh": "永定门外",
        "public_transport": "platform"
      }
    },
    {
      "type": "node",
      "id": 9346809406,
      "lat": 39.8801176,
      "lon": 116.3924244,
      "tags": {
        "name": "天桥",
        "name:en": "Tianqiao",
        "public_transport": "stop_position",
        "railway": "stop",
        "subway": "yes"
      }
    },
    {
      "type": "node",
      "id": 9346809407,
      "lat": 39.8811835,
      "lon": 116.3925862,
      "tags": {
        "name": "天桥",
        "name:en": "Tianqiao",
        "public_transport": "stop_position",
        "railway": "stop",
        "subway": "yes"
      }
    },
    {
      "type": "node",
      "id": 9385814574,
      "lat": 39.8886858,
      "lon": 116.3875253,
      "tags": {
        "bus": "yes",
        "highway": "bus_stop",
        "name": "板章路",
        "name:zh": "板章路",
        "public_transport": "platform",
        "shelter": "yes"
      }
    },
    {
      "type": "node",
      "id": 9385814575,
      "lat": 39.888872,
      "lon": 116.3872839,
      "tags": {
        "bus": "yes",
        "highway": "bus_stop",
        "name": "板章路",
        "name:zh": "板章路",
        "public_transport": "platform",
        "shelter": "yes"
      }
    },
    {
      "type": "node",
      "id": 9385815201,
      "lat": 39.8884059,
      "lon": 116.3855928,
      "tags": {
        "bus": "yes",
        "highway": "bus_stop",
        "name": "万明路",
        "name:zh": "万明路",
        "public_transport": "platform"
      }
    },
    {
      "type": "node",
      "id": 9398471905,
      "lat": 39.8834026,
      "lon": 116.4252734,
      "tags": {
        "bus": "yes",
        "highway": "bus_stop",
        "name": "北京体育馆东",
        "name:zh": "北京体育馆东",
        "public_transport": "platform"
      }
    },
    {
      "type": "node",
      "id": 9398471906,
      "lat": 39.8833882,
      "lon": 116.4252225,
      "tags": {
        "bus": "yes",
        "name": "北京体育馆东",
        "name:zh": "北京体育馆东",
        "public_transport": "stop_position"
      }
    },
    {
      "type": "node",
      "id": 9398471907,
      "lat": 39.8827501,
      "lon": 116.4258474,
      "tags": {
        "bus": "yes",
        "highway": "bus_stop",
        "name": "北京体育馆东",
        "name:zh": "北京体育馆东",
        "public_transport": "platform"
      }
    },
    {
      "type": "node",
      "id": 9398478746,
      "lat": 39.8828329,
      "lon": 116.4239118,
      "tags": {
        "bus": "yes",
        "name": "北京体育馆",
        "name:zh": "北京体育馆",
        "public_transport": "stop_position"
      }
    },
    {
      "type": "node",
      "id": 9398478747,
      "lat": 39.8828408,
      "lon": 116.4242019,
      "tags": {
        "bus": "yes",
        "name": "北京体育馆",
        "name:zh": "北京体育馆",
        "public_transport": "stop_position"
      }
    },
    {
      "type": "node",
      "id": 9398478748,
      "lat": 39.8828757,
      "lon": 116.4241952,
      "tags": {
        "bus": "yes",
        "highway": "bus_stop",
        "name": "北京体育馆",
        "name:zh": "北京体育馆",
        "public_transport": "platform"
      }
    },
    {
      "type": "node",
      "id": 9398478750,
      "lat": 39.8828633,
      "lon": 116.4239243,
      "tags": {
        "bus": "yes",
        "highway": "bus_stop",
        "name": "北京体育馆",
        "name:zh": "北京体育馆",
        "public_transport": "platform"
      }
    },
    {
      "type": "node",
      "id": 9398478752,
      "lat": 39.8826968,
      "lon": 116.4228549,
      "tags": {
        "bus": "yes",
        "name": "北京体育馆",
        "name:zh": "北京体育馆",
        "public_transport": "stop_position"
      }
    },
    {
      "type": "node",
      "id": 9398478753,
      "lat": 39.8826925,
      "lon": 116.422695,
      "tags": {
        "bus": "yes",
        "name": "北京体育馆",
        "name:zh": "北京体育馆",
        "public_transport": "stop_position"
      }
    },
    {
      "type": "node",
      "id": 9398489953,
      "lat": 39.8826122,
      "lon": 116.4228567,
      "tags": {
        "bus": "yes",
        "highway": "bus_stop",
        "name": "北京体育馆",
        "name:zh": "北京体育馆",
        "public_transport": "platform"
      }
    },
    {
      "type": "node",
      "id": 9398489954,
      "lat": 39.8826163,
      "lon": 116.4226985,
      "tags": {
        "bus": "yes",
        "highway": "bus_stop",
        "name": "北京体育馆",
        "name:zh": "北京体育馆",
        "public_transport": "platform"
      }
    },
    {
      "type": "node",
      "id": 9399131718,
      "lat": 39.8825589,
      "lon": 116.4179641,
      "tags": {
        "bus": "yes",
        "name": "北京体育馆西",
        "name:zh": "北京体育馆西",
        "public_transport": "stop_position"
      }
    },
    {
      "type": "node",
      "id": 9399131719,
      "lat": 39.8824764,
      "lon": 116.4179671,
      "tags": {
        "bus": "yes",
        "highway": "bus_stop",
        "name": "北京体育馆西",
        "name:zh": "北京体育馆西",
        "public_transport": "platform"
      }
    },
    {
      "type": "node",
      "id": 9399131720,
      "lat": 39.8826021,
      "lon": 116.4196147,
      "tags": {
        "bus": "yes",
        "name": "北京体育馆西",
        "name:zh": "北京体育馆西",
        "public_transport": "stop_position"
      }
    },
    {
      "type": "node",
      "id": 9399131721,
      "lat": 39.8825072,
      "lon": 116.4196193,
      "tags": {
        "bus": "yes",
        "highway": "bus_stop",
        "name": "北京体育馆西",
        "name:zh": "北京体育馆西",
        "public_transport": "platform"
      }
    },
    {
      "type": "node",
      "id": 9399131724,
      "lat": 39.8826785,
      "lon": 116.4178726,
      "tags": {
        "bus": "yes",
        "name": "北京体育馆西",
        "name:zh": "北京体育馆西",
        "public_transport": "stop_position"
      }
    },
    {
      "type": "node",
      "id": 9399131725,
      "lat": 39.8827069,
      "lon": 116.4178705,
      "tags": {
        "bus": "yes",
        "highway": "bus_stop",
        "name": "北京体育馆西",
        "name:zh": "北京体育馆西",
        "public_transport": "platform"
      }
    },
    {
      "type": "node",
      "id": 9399131726,
      "lat": 39.8826491,
      "lon": 116.4170693,
      "tags": {
        "bus": "yes",
        "name": "北京体育馆西",
        "name:zh": "北京体育馆西",
        "public_transport": "stop_position"
      }
    },
    {
      "type": "node",
      "id": 9399131727,
      "lat": 39.882674,
      "lon": 116.417098,
      "tags": {
        "bus": "yes",
        "highway": "bus_stop",
        "name": "北京体育馆西",
        "name:zh": "北京体育馆西",
        "public_transport": "platform"
      }
    },
    {
      "type": "node",
      "id": 9399160595,
      "lat": 39.884265,
      "lon": 116.4139062,
      "tags": {
        "bus": "yes",
        "highway": "bus_stop",
        "name": "法华寺",
        "name:zh": "法华寺",
        "public_transport": "platform"
      }
    },
    {
      "type": "node",
      "id": 9399160596,
      "lat": 39.8839789,
      "lon": 116.4140322,
      "tags": {
        "bus": "yes",
        "highway": "bus_stop",
        "name": "法华寺",
        "name:zh": "法华寺",
        "public_transport": "platform"
      }
    },
    {
      "type": "node",
      "id": 9399171297,
      "lat": 39.883633,
      "lon": 116.4144764,
      "tags": {
        "bus": "yes",
        "name": "法华寺",
        "name:zh": "法华寺",
        "public_transport": "stop_position"
      }
    },
    {
      "type": "node",
      "id": 9399171298,
      "lat": 39.8838309,
      "lon": 116.4143768,
      "tags": {
        "bus": "yes",
        "name": "法华寺",
        "name:zh": "法华寺",
        "public_transport": "stop_position"
      }
    },
    {
      "type": "node",
      "id": 9399171299,
      "lat": 39.884061,
      "lon": 116.414261,
      "tags": {
        "bus": "yes",
        "name": "法华寺",
        "name:zh": "法华寺",
        "public_transport": "stop_position"
      }
    },
    {
      "type": "node",
      "id": 9399171300,
      "lat": 39.8842969,
      "lon": 116.4139641,
      "tags": {
        "bus": "yes",
        "name": "法华寺",
        "name:zh": "法华寺",
        "public_transport": "stop_position"
      }
    },
    {
      "type": "node",
      "id": 9399171301,
      "lat": 39.8842927,
      "lon": 116.4137615,
      "tags": {
        "bus": "yes",
        "name": "法华寺",
        "name:zh": "法华寺",
        "public_transport": "stop_position"
      }
    },
    {
      "type": "node",
      "id": 9399171302,
      "lat": 39.8844205,
      "lon": 116.4136974,
      "tags": {
        "bus": "yes",
        "name": "法华寺",
        "name:zh": "法华寺",
        "public_transport": "stop_position"
      }
    },
    {
      "type": "node",
      "id": 9399171303,
      "lat": 39.8844157,
      "lon": 116.4136588,
      "tags": {
        "bus": "yes",
        "highway": "bus_stop",
        "name": "法华寺",
        "name:zh": "法华寺",
        "public_transport": "platform"
      }
    },
    {
      "type": "node",
      "id": 9399171304,
      "lat": 39.8842861,
      "lon": 116.4137292,
      "tags": {
        "bus": "yes",
        "highway": "bus_stop",
        "name": "法华寺",
        "name:zh": "法华寺",
        "public_transport": "platform"
      }
    },
    {
      "type": "node",
      "id": 9399185065,
      "lat": 39.8840756,
      "lon": 116.4143273,
      "tags": {
        "bus": "yes",
        "highway": "bus_stop",
        "name": "法华寺",
        "name:zh": "法华寺",
        "public_transport": "platform"
      }
    },
    {
      "type": "node",
      "id": 9399185066,
      "lat": 39.8836578,
      "lon": 116.4145419,
      "tags": {
        "bus": "yes",
        "highway": "bus_stop",
        "name": "法华寺",
        "name:zh": "法华寺",
        "public_transport": "platform"
      }
    },
    {
      "type": "node",
      "id": 9402081477,
      "lat": 39.8870157,
      "lon": 116.4094624,
      "tags": {
        "bus": "yes",
        "highway": "bus_stop",
        "name": "红桥路口西",
        "name:zh": "红桥路口西",
        "public_transport": "platform"
      }
    },
    {
      "type": "node",
      "id": 9402081478,
      "lat": 39.8866334,
      "lon": 116.4107967,
      "tags": {
        "bus": "yes",
        "name": "红桥路口西",
        "name:zh": "红桥路口西",
        "public_transport": "stop_position"
      }
    },
    {
      "type": "node",
      "id": 9402081479,
      "lat": 39.8865893,
      "lon": 116.4107849,
      "tags": {
        "bus": "yes",
        "highway": "bus_stop",
        "name": "红桥路口西",
        "name:zh": "红桥路口西",
        "public_transport": "platform"
      }
    },
    {
      "type": "node",
      "id": 9402089519,
      "lat": 39.8868085,
      "lon": 116.4044355,
      "tags": {
        "bus": "yes",
        "name": "天坛北门",
        "name:zh": "天坛北门",
        "public_transport": "stop_position"
      }
    },
    {
      "type": "node",
      "id": 9402089520,
      "lat": 39.8867543,
      "lon": 116.4044387,
      "tags": {
        "bench": "no",
        "bin": "no",
        "bus": "yes",
        "highway": "bus_stop",
        "lit": "no",
        "name": "天坛北门",
        "name:zh": "天坛北门",
        "public_transport": "platform",
        "shelter": "no"
      }
    },
    {
      "type": "node",
      "id": 9402089521,
      "lat": 39.8867872,
      "lon": 116.4052226,
      "tags": {
        "bench": "no",
        "bin": "yes",
        "bus": "yes",
        "highway": "bus_stop",
        "lit": "yes",
        "name": "天坛北门",
        "name:zh": "天坛北门",
        "public_transport": "platform",
        "shelter": "yes"
      }
    },
    {
      "type": "node",
      "id": 9402089522,
      "lat": 39.8869014,
      "lon": 116.4046665,
      "tags": {
        "bench": "no",
        "bin": "no",
        "bus": "yes",
        "highway": "bus_stop",
        "lit": "yes",
        "name": "天坛北门",
        "name:zh": "天坛北门",
        "public_transport": "platform",
        "shelter": "yes"
      }
    },
    {
      "type": "node",
      "id": 9402126156,
      "lat": 39.8866366,
      "lon": 116.4001274,
      "tags": {
        "bench": "no",
        "bin": "yes",
        "bus": "yes",
        "highway": "bus_stop",
        "name": "金鱼池",
        "name:zh": "金鱼池",
        "public_transport": "platform",
        "shelter": "yes"
      }
    },
    {
      "type": "node",
      "id": 9402126157,
      "lat": 39.8867848,
      "lon": 116.3999978,
      "tags": {
        "bench": "no",
        "bin": "yes",
        "bus": "yes",
        "highway": "bus_stop",
        "name": "金鱼池",
        "name:zh": "金鱼池",
        "public_transport": "platform",
        "shelter": "yes"
      }
    },
    {
      "type": "node",
      "id": 9500495639,
      "lat": 39.8948016,
      "lon": 116.4129866,
      "tags": {
        "amenity": "restaurant",
        "branch": "崇外大街店",
        "brand": "西部马华",
        "brand:en": "Western Mahua",
        "brand:wikidata": "Q108485295",
        "brand:zh": "西部马华",
        "cuisine": "chinese",
        "diet:halal": "only",
        "name": "西部马华",
        "name:en": "Western Mahua",
        "name:zh": "西部马华"
      }
    },
    {
      "type": "node",
      "id": 9500495640,
      "lat": 39.8950721,
      "lon": 116.4125505,
      "tags": {
        "bus": "yes",
        "name": "花市路口南",
        "name:zh": "花市路口南",
        "public_transport": "stop_position"
      }
    },
    {
      "type": "node",
      "id": 9664667252,
      "lat": 39.8852839,
      "lon": 116.3939037,
      "tags": {
        "bus": "yes",
        "name": "天桥路口东",
        "name:zh": "天桥路口东",
        "public_transport": "stop_position"
      }
    },
    {
      "type": "node",
      "id": 9664667253,
      "lat": 39.8852324,
      "lon": 116.3939287,
      "tags": {
        "bus": "yes",
        "highway": "bus_stop",
        "name": "天桥路口东",
        "name:zh": "天桥路口东",
        "public_transport": "platform"
      }
    },
    {
      "type": "node",
      "id": 9664739963,
      "lat": 39.8850355,
      "lon": 116.3898503,
      "tags": {
        "bus": "yes",
        "highway": "bus_stop",
        "name": "天桥路口西",
        "name:zh": "天桥路口西",
        "public_transport": "platform"
      }
    },
    {
      "type": "node",
      "id": 9664739964,
      "lat": 39.8850426,
      "lon": 116.3898547,
      "tags": {
        "bus": "yes",
        "name": "天桥路口西",
        "name:zh": "天桥路口西",
        "public_transport": "stop_position"
      }
    },
    {
      "type": "node",
      "id": 9664768447,
      "lat": 39.8848676,
      "lon": 116.3808631,
      "tags": {
        "bus": "yes",
        "name": "永安路",
        "name:zh": "永安路",
        "public_transport": "stop_position"
      }
    },
    {
      "type": "node",
      "id": 9664768448,
      "lat": 39.8848899,
      "lon": 116.3812417,
      "tags": {
        "bus": "yes",
        "highway": "bus_stop",
        "name": "永安路",
        "name:zh": "永安路",
        "public_transport": "platform"
      }
    },
    {
      "type": "node",
      "id": 9664768449,
      "lat": 39.8848748,
      "lon": 116.3812326,
      "tags": {
        "bus": "yes",
        "name": "永安路",
        "name:zh": "永安路",
        "public_transport": "stop_position"
      }
    },
    {
      "type": "node",
      "id": 9664768450,
      "lat": 39.8847487,
      "lon": 116.3808642,
      "tags": {
        "bus": "yes",
        "highway": "bus_stop",
        "name": "永安路",
        "name:zh": "永安路",
        "public_transport": "platform"
      }
    },