{
  "version": 0.6,
  "generator": "Overpass API 0.7.62.11 87bfad18",
  "osm3s": {
    "timestamp_osm_base": "2026-04-23T09:13:17Z",
    "copyright": "The data included in this document is from www.openstreetmap.org. The data is made available under ODbL."
  },
  "elements": [
    {
      "type": "node",
      "id": 27486601,
      "lat": 39.9091961,
      "lon": 116.3287814,
      "tags": {
        "bus": "yes",
        "name": "木樨地北",
        "name:zh": "木樨地北",
        "public_transport": "stop_position"
      }
    },
    {
      "type": "node",
      "id": 123566421,
      "lat": 39.8950696,
      "lon": 116.3257152,
      "tags": {
        "railway": "switch",
        "ref": "1"
      }
    },
    {
      "type": "node",
      "id": 123566444,
      "lat": 39.8950224,
      "lon": 116.3298592,
      "tags": {
        "railway": "switch",
        "ref": "1201"
      }
    },
    {
      "type": "node",
      "id": 331879531,
      "lat": 39.9112223,
      "lon": 116.3571157,
      "tags": {
        "bus": "yes",
        "name": "辟才胡同",
        "name:zh": "辟才胡同",
        "public_transport": "stop_position"
      }
    },
    {
      "type": "node",
      "id": 339086167,
      "lat": 39.9058006,
      "lon": 116.3513203,
      "tags": {
        "name": "复兴门",
        "name:en": "Fuxingmen",
        "name:zh": "复兴门",
        "public_transport": "stop_position",
        "railway": "stop",
        "subway": "yes"
      }
    },
    {
      "type": "node",
      "id": 339086220,
      "lat": 39.9058369,
      "lon": 116.3465708,
      "tags": {
        "name": "南礼士路",
        "name:en": "South Lishi Road",
        "name:zh": "南礼士路",
        "public_transport": "stop_position",
        "railway": "stop",
        "subway": "yes"
      }
    },
    {
      "type": "node",
      "id": 339086329,
      "lat": 39.9060936,
      "lon": 116.3178207,
      "tags": {
        "name": "军事博物馆",
        "name:de": "Militärmuseum",
        "name:en": "Military Museum",
        "name:zh": "军事博物馆",
        "name:zh-Latn-pinyin": "Jūnshì Bówùguǎn",
        "public_transport": "stop_position",
        "railway": "stop",
        "subway": "yes"
      }
    },
    {
      "type": "node",
      "id": 339086364,
      "lat": 39.9060636,
      "lon": 116.331503,
      "tags": {
        "name": "木樨地（1号线）",
        "name:en": "Muxidi",
        "name:zh": "木樨地",
        "operator": "北京地铁一公司",
        "public_transport": "stop_position",
        "railway": "stop",
        "subway": "yes",
        "wikidata": "Q842107",
        "wikipedia": "zh:木樨地站"
      }
    },
    {
      "type": "node",
      "id": 339089932,
      "lat": 39.8980033,
      "lon": 116.3572162,
      "tags": {
        "name": "长椿街",
        "name:en": "Changchun Street",
        "name:ru": "Чанчуньцзе",
        "name:zh": "长椿街",
        "public_transport": "stop_position",
        "railway": "stop",
        "subway": "yes",
        "wikidata": "Q5071746",
        "wikipedia": "zh:长椿街站"
      }
    },
    {
      "type": "node",
      "id": 339090100,
      "lat": 39.9058346,
      "lon": 116.35041,
      "tags": {
        "name": "复兴门",
        "name:en": "Fuxingmen",
        "name:ru": "Фусинмэнь",
        "name:zh": "复兴门",
        "public_transport": "stop_position",
        "railway": "stop",
        "subway": "yes",
        "wikidata": "Q4567932",
        "wikipedia": "zh:复兴门 (北京)"
      }
    },
    {
      "type": "node",
      "id": 737186928,
      "lat": 39.9185475,
      "lon": 116.3506299,
      "tags": {
        "bench": "yes",
        "bus": "yes",
        "covered": "yes",
        "highway": "bus_stop",
        "name": "阜成门南",
        "name:zh": "阜成门南",
        "public_transport": "platform"
      }
    },
    {
      "type": "node",
      "id": 1099882757,
      "lat": 39.8944012,
      "lon": 116.3205742,
      "tags": {
        "description": "1127#尖 西长下行终点 K8+795",
        "railway": "switch",
        "railway:position:exact:西长:下": "8.795",
        "railway:switch": "double_slip",
        "ref": "1123;1125;1127;1129"
      }
    },
    {
      "type": "node",
      "id": 1099882788,
      "lat": 39.894929,
      "lon": 116.3238074,
      "tags": {
        "description": "1037#尖 西长上行终点 K8+521 北京直通上行终点 K7+686",
        "railway": "switch",
        "railway:position:exact:北京直通:上": "7.686",
        "railway:position:exact:西长:上": "8.521",
        "ref": "1037"
      }
    },
    {
      "type": "node",
      "id": 1099882792,
      "lat": 39.8943227,
      "lon": 116.3204524,
      "tags": {
        "railway": "switch",
        "ref": "1133"
      }
    },
    {
      "type": "node",
      "id": 1099882913,
      "lat": 39.8945164,
      "lon": 116.3216373,
      "tags": {
        "railway": "switch",
        "ref": "1121"
      }
    },
    {
      "type": "node",
      "id": 1099882938,
      "lat": 39.895043,
      "lon": 116.324855,
      "tags": {
        "railway": "switch",
        "railway:switch": "double_slip",
        "ref": "1007;1009;1011;1013"
      }
    },
    {
      "type": "node",
      "id": 1099882979,
      "lat": 39.8949672,
      "lon": 116.3240377,
      "tags": {
        "railway": "switch",
        "ref": "1035"
      }
    },
    {
      "type": "node",
      "id": 1099883023,
      "lat": 39.8948706,
      "lon": 116.3237858,
      "tags": {
        "railway": "switch",
        "ref": "1033"
      }
    },
    {
      "type": "node",
      "id": 1099883054,
      "lat": 39.894571,
      "lon": 116.3216187,
      "tags": {
        "railway": "switch",
        "ref": "1131"
      }
    },
    {
      "type": "node",
      "id": 1099883107,
      "lat": 39.8947075,
      "lon": 116.3228155,
      "tags": {
        "railway": "switch",
        "railway:switch": "double_slip",
        "ref": "1039;1041;1043;1045"
      }
    },
    {
      "type": "node",
      "id": 1099883165,
      "lat": 39.8948238,
      "lon": 116.3239073,
      "tags": {
        "railway": "switch",
        "railway:switch": "double_slip",
        "ref": "1015;1017;1019;1021"
      }
    },
    {
      "type": "node",
      "id": 1099883170,
      "lat": 39.8945997,
      "lon": 116.3221421,
      "tags": {
        "railway": "switch",
        "railway:switch": "double_slip",
        "ref": "1051;1053;1055;1057"
      }
    },
    {
      "type": "node",
      "id": 1099883232,
      "lat": 39.8948409,
      "lon": 116.323615,
      "tags": {
        "railway": "switch",
        "ref": "1047"
      }
    },
    {
      "type": "node",
      "id": 1099883367,
      "lat": 39.8944477,
      "lon": 116.3210405,
      "tags": {
        "railway": "railway_crossing",
        "ref": "菱7"
      }
    },
    {
      "type": "node",
      "id": 1195696789,
      "lat": 39.8981987,
      "lon": 116.3562518,
      "tags": {
        "railway": "subway_entrance",
        "ref": "A1"
      }
    },
    {
      "type": "node",
      "id": 1195696840,
      "lat": 39.8978739,
      "lon": 116.356647,
      "tags": {
        "railway": "subway_entrance",
        "ref": "D1"
      }
    },
    {
      "type": "node",
      "id": 1195696908,
      "lat": 39.8982018,
      "lon": 116.356619,
      "tags": {
        "railway": "subway_entrance",
        "ref": "A2"
      }
    },
    {
      "type": "node",
      "id": 1195697026,
      "lat": 39.8978586,
      "lon": 116.3562676,
      "tags": {
        "railway": "subway_entrance",
        "ref": "D2"
      }
    },
    {
      "type": "node",
      "id": 1298058529,
      "lat": 39.9064396,
      "lon": 116.3319853,
      "tags": {
        "railway": "subway_entrance"
      }
    },
    {
      "type": "node",
      "id": 1298058539,
      "lat": 39.905787,
      "lon": 116.3320216,
      "tags": {
        "railway": "subway_entrance"
      }
    },
    {
      "type": "node",
      "id": 1298058540,
      "lat": 39.9059112,
      "lon": 116.3184148,
      "tags": {
        "name": "C2",
        "railway": "subway_entrance"
      }
    },
    {
      "type": "node",
      "id": 1298058556,
      "lat": 39.9064396,
      "lon": 116.3325164,
      "tags": {
        "railway": "subway_entrance"
      }
    },
    {
      "type": "node",
      "id": 1298058560,
      "lat": 39.9063471,
      "lon": 116.3161112,
      "tags": {
        "name": "A",
        "railway": "subway_entrance"
      }
    },
    {
      "type": "node",
      "id": 1298058566,
      "lat": 39.9059152,
      "lon": 116.346572,
      "tags": {
        "name": "南礼士路",
        "name:en": "South Lishi Road",
        "name:zh": "南礼士路",
        "public_transport": "stop_position",
        "railway": "stop",
        "subway": "yes"
      }
    },
    {
      "type": "node",
      "id": 1298058567,
      "lat": 39.9058124,
      "lon": 116.330414,
      "tags": {
        "railway": "subway_entrance"
      }
    },
    {
      "type": "node",
      "id": 1298058568,
      "lat": 39.9061906,
      "lon": 116.3178229,
      "tags": {
        "name": "军事博物馆",
        "name:de": "Militärmuseum",
        "name:en": "Military Museum",
        "name:zh": "军事博物馆",
        "name:zh-Latn-pinyin": "Jūnshì Bówùguǎn",
        "public_transport": "stop_position",
        "railway": "stop",
        "subway": "yes"
      }
    },
    {
      "type": "node",
      "id": 1298058575,
      "lat": 39.9064649,
      "lon": 116.3304392,
      "tags": {
        "railway": "subway_entrance"
      }
    },
    {
      "type": "node",
      "id": 1298058581,
      "lat": 39.9101312,
      "lon": 116.3286864,
      "tags": {
        "bus": "yes",
        "name": "玉渊潭东门",
        "name:zh": "玉渊潭东门",
        "public_transport": "stop_position"
      }
    },
    {
      "type": "node",
      "id": 1298058590,
      "lat": 39.9057824,
      "lon": 116.3324608,
      "tags": {
        "railway": "subway_entrance"
      }
    },
    {
      "type": "node",
      "id": 1298058592,
      "lat": 39.9063195,
      "lon": 116.3190866,
      "tags": {
        "name": "B",
        "railway": "subway_entrance"
      }
    },
    {
      "type": "node",
      "id": 1298058595,
      "lat": 39.9061592,
      "lon": 116.3315014,
      "tags": {
        "name": "木樨地（1号线）",
        "name:en": "Muxidi",
        "name:zh": "木樨地",
        "public_transport": "stop_position",
        "railway": "stop",
        "subway": "yes"
      }
    },
    {
      "type": "node",
      "id": 1298058603,
      "lat": 39.9058031,
      "lon": 116.3309719,
      "tags": {
        "railway": "subway_entrance"
      }
    },
    {
      "type": "node",
      "id": 1298058630,
      "lat": 39.9058811,
      "lon": 116.3159403,
      "tags": {
        "name": "D",
        "railway": "subway_entrance"
      }
    },
    {
      "type": "node",
      "id": 1298058633,
      "lat": 39.9064577,
      "lon": 116.3309843,
      "tags": {
        "railway": "subway_entrance"
      }
    },
    {
      "type": "node",
      "id": 1298058646,
      "lat": 39.9059086,
      "lon": 116.3188511,
      "tags": {
        "name": "C1",
        "railway": "subway_entrance"
      }
    },
    {
      "type": "node",
      "id": 1298143225,
      "lat": 39.9056093,
      "lon": 116.3471163,
      "tags": {
        "name": "南礼士路站C口",
        "railway": "subway_entrance"
      }
    },
    {
      "type": "node",
      "id": 1298143238,
      "lat": 39.9056797,
      "lon": 116.345569,
      "tags": {
        "name": "南礼士路站D1口",
        "railway": "subway_entrance"
      }
    },
    {
      "type": "node",
      "id": 1298143246,
      "lat": 39.9060963,
      "lon": 116.3461501,
      "tags": {
        "name": "南礼士路站A口",
        "railway": "subway_entrance"
      }
    },
    {
      "type": "node",
      "id": 1298143253,
      "lat": 39.905669,
      "lon": 116.3460282,
      "tags": {
        "name": "南礼士路站D2口",
        "railway": "subway_entrance"
      }
    },
    {
      "type": "node",
      "id": 1298408190,
      "lat": 39.9058839,
      "lon": 116.3513181,
      "tags": {
        "name": "复兴门",
        "name:en": "Fuxingmen",
        "name:zh": "复兴门",
        "public_transport": "stop_position",
        "railway": "stop",
        "subway": "yes"
      }
    },
    {
      "type": "node",
      "id": 1298408197,
      "lat": 39.8981091,
      "lon": 116.3572105,
      "tags": {
        "name": "长椿街",
        "name:en": "Changchun Street",
        "name:zh": "长椿街",
        "public_transport": "stop_position",
        "railway": "stop",
        "subway": "yes"
      }
    },
    {
      "type": "node",
      "id": 1298408238,
      "lat": 39.905834,
      "lon": 116.3505601,
      "tags": {
        "name": "复兴门",
        "name:en": "Fuxingmen",
        "name:ru": "Фусинмэнь",
        "name:zh": "复兴门",
        "public_transport": "stop_position",
        "railway": "stop",
        "subway": "yes"
      }
    },
    {
      "type": "node",
      "id": 1301959256,
      "lat": 39.9058201,
      "lon": 116.3548195,
      "tags": {
        "railway": "buffer_stop"
      }
    },
    {
      "type": "node",
      "id": 1301959275,
      "lat": 39.9058517,
      "lon": 116.354812,
      "tags": {
        "railway": "buffer_stop"
      }
    },
    {
      "type": "node",
      "id": 1410718549,
      "lat": 39.9079486,
      "lon": 116.3293917,
      "tags": {
        "bus": "yes",
        "name": "木樨地北",
        "name:zh": "木樨地北",
        "public_transport": "stop_position"
      }
    },
    {
      "type": "node",
      "id": 1419861954,
      "lat": 39.9100701,
      "lon": 116.3507062,
      "tags": {
        "bus": "yes",
        "name": "北京儿童医院",
        "name:zh": "北京儿童医院",
        "public_transport": "stop_position"
      }
    },
    {
      "type": "node",
      "id": 1419861966,
      "lat": 39.9107729,
      "lon": 116.3489423,
      "tags": {
        "amenity": "hospital",
        "healthcare": "hospital",
        "name": "北京新世纪儿童医院",
        "name:zh": "北京新世纪儿童医院",
        "name:zh-Hans": "北京新世纪儿童医院",
        "name:zh-Hant": "北京新世紀兒童醫院",
        "wheelchair": "yes"
      }
    },
    {
      "type": "node",
      "id": 1549209161,
      "lat": 39.8951358,
      "lon": 116.3177805,
      "tags": {
        "bus": "yes",
        "name": "北京西站",
        "name:zh": "北京西站",
        "public_transport": "stop_position"
      }
    },
    {
      "type": "node",
      "id": 1599968901,
      "lat": 39.9112406,
      "lon": 116.3569814,
      "tags": {
        "bus": "yes",
        "name": "辟才胡同",
        "name:zh": "辟才胡同",
        "public_transport": "stop_position"
      }
    },
    {
      "type": "node",
      "id": 1599968977,
      "lat": 39.9127047,
      "lon": 116.3556941,
      "tags": {
        "bus": "yes",
        "name": "辟才胡同西口",
        "name:zh": "辟才胡同西口",
        "public_transport": "stop_position"
      }
    },
    {
      "type": "node",
      "id": 1637935546,
      "lat": 39.8979664,
      "lon": 116.3556893,
      "tags": {
        "bus": "yes",
        "name": "长椿街路口西",
        "name:zh": "长椿街路口西",
        "public_transport": "stop_position"
      }
    },
    {
      "type": "node",
      "id": 1647726692,
      "lat": 39.8959687,
      "lon": 116.3165404,
      "tags": {
        "bus": "yes",
        "name": "北京西站",
        "name:zh": "北京西站",
        "public_transport": "stop_position"
      }
    },
    {
      "type": "node",
      "id": 1647734568,
      "lat": 39.896034,
      "lon": 116.3165474,
      "tags": {
        "bus": "yes",
        "highway": "bus_stop",
        "name": "北京西站",
        "name:zh": "北京西站",
        "public_transport": "platform"
      }
    },
    {
      "type": "node",
      "id": 1673265528,
      "lat": 39.9064091,
      "lon": 116.3467814,
      "tags": {
        "name": "南礼士路站B口",
        "railway": "subway_entrance"
      }
    },
    {
      "type": "node",
      "id": 1679752277,
      "lat": 39.8947608,
      "lon": 116.3177802,
      "tags": {
        "bus": "yes",
        "name": "北京西站",
        "name:zh": "北京西站",
        "public_transport": "stop_position"
      }
    },
    {
      "type": "node",
      "id": 1679752280,
      "lat": 39.8948795,
      "lon": 116.3177803,
      "tags": {
        "bus": "yes",
        "name": "北京西站",
        "name:zh": "北京西站",
        "public_transport": "stop_position"
      }
    },
    {
      "type": "node",
      "id": 1679752284,
      "lat": 39.8949973,
      "lon": 116.3177804,
      "tags": {
        "bus": "yes",
        "name": "北京西站",
        "name:zh": "北京西站",
        "public_transport": "stop_position"
      }
    },
    {
      "type": "node",
      "id": 1679752287,
      "lat": 39.8952641,
      "lon": 116.3177807,
      "tags": {
        "bus": "yes",
        "name": "北京西站",
        "name:zh": "北京西站",
        "public_transport": "stop_position"
      }
    },
    {
      "type": "node",
      "id": 1709521416,
      "lat": 39.9034811,
      "lon": 116.3567424,
      "tags": {
        "amenity": "bank",
        "atm": "yes",
        "brand": "中国建设银行",
        "brand:en": "China Construction Bank",
        "brand:wikidata": "Q26299",
        "brand:wikipedia": "en:China Construction Bank",
        "brand:zh": "中国建设银行",
        "name": "中国建设银行",
        "name:en": "China Construction Bank",
        "name:zh": "中国建设银行"
      }
    },
    {
      "type": "node",
      "id": 1709521417,
      "lat": 39.9031807,
      "lon": 116.3520003,
      "tags": {
        "amenity": "bank",
        "atm": "yes",
        "name": "工商银行北京分行"
      }
    },
    {
      "type": "node",
      "id": 1709521418,
      "lat": 39.9049461,
      "lon": 116.3561094,
      "tags": {
        "amenity": "bank",
        "atm": "yes",
        "brand": "北京银行",
        "brand:en": "Bank of Beijing",
        "brand:wikidata": "Q39146",
        "brand:wikipedia": "zh:北京銀行",
        "brand:zh": "北京银行",
        "name": "北京银行",
        "name:en": "Bank of Beijing",
        "name:zh": "北京银行"
      }
    },
    {
      "type": "node",
      "id": 1709521419,
      "lat": 39.9026704,
      "lon": 116.3576812,
      "tags": {
        "amenity": "restaurant",
        "cuisine": "chinese",
        "name": "辣厨娘"
      }
    },
    {
      "type": "node",
      "id": 1709521421,
      "lat": 39.9049173,
      "lon": 116.3564957,
      "tags": {
        "amenity": "bank",
        "atm": "yes",
        "brand": "招商银行",
        "brand:en": "China Merchants Bank",
        "brand:wikidata": "Q1073327",
        "brand:wikipedia": "en:China Merchants Bank",
        "brand:zh": "招商银行",
        "name": "招商银行",
        "name:en": "China Merchants Bank",
        "name:zh": "招商银行"
      }
    },
    {
      "type": "node",
      "id": 1709521424,
      "lat": 39.9029256,
      "lon": 116.3576598,
      "tags": {
        "amenity": "restaurant",
        "cuisine": "chinese",
        "name": "洞庭楚乡"
      }
    },
    {
      "type": "node",
      "id": 1709525112,
      "lat": 39.9067101,
      "lon": 116.3528328,
      "tags": {
        "amenity": "restaurant",
        "cuisine": "chinese",
        "name": "老北京"
      }
    },
    {
      "type": "node",
      "id": 1709525114,
      "lat": 39.902407,
      "lon": 116.35759,
      "tags": {
        "amenity": "toilets"
      }
    },
    {
      "type": "node",
      "id": 1709525122,
      "lat": 39.9068054,
      "lon": 116.3528314,
      "tags": {
        "amenity": "restaurant",
        "cuisine": "chinese",
        "name": "草菁菁火锅"
      }
    },
    {
      "type": "node",
      "id": 1709525125,
      "lat": 39.9075012,
      "lon": 116.3517624,
      "tags": {
        "name": "百盛地下超市",
        "shop": "supermarket"
      }
    },
    {
      "type": "node",
      "id": 1709525127,
      "lat": 39.9065265,
      "lon": 116.3527242,
      "tags": {
        "amenity": "bank",
        "atm": "yes",
        "brand": "中国农业银行",
        "brand:en": "Agricultural Bank of China",
        "brand:wikidata": "Q26298",
        "brand:wikipedia": "en:Agricultural Bank of China",
        "brand:zh": "中国农业银行",
        "name": "中国农业银行",
        "name:en": "Agricultural Bank of China",
        "name:zh": "中国农业银行"
      }
    },
    {
      "type": "node",
      "id": 1709525133,
      "lat": 39.9067585,
      "lon": 116.3528306,
      "tags": {
        "amenity": "fast_food",
        "name": "宏状元粥店"
      }
    },
    {
      "type": "node",
      "id": 1709525134,
      "lat": 39.9042941,
      "lon": 116.3526349,
      "tags": {
        "amenity": "toilets"
      }
    },
    {
      "type": "node",
      "id": 1709525135,
      "lat": 39.906656,
      "lon": 116.3528349,
      "tags": {
        "name": "明苑酒店",
        "tourism": "hotel"
      }
    },
    {
      "type": "node",
      "id": 1721502160,
      "lat": 39.8972178,
      "lon": 116.3473003,
      "tags": {
        "bus": "yes",
        "highway": "bus_stop",
        "name": "西便门",
        "name:zh": "西便门",
        "public_transport": "platform"
      }
    },
    {
      "type": "node",
      "id": 1721502243,
      "lat": 39.9111972,
      "lon": 116.3390676,
      "tags": {
        "bus": "yes",
        "name": "月坛南街南站",
        "name:zh": "月坛南街南站",
        "public_transport": "stop_position"
      }
    },
    {
      "type": "node",
      "id": 1721502244,
      "lat": 39.9111664,
      "lon": 116.3389444,
      "tags": {
        "bus": "yes",
        "name": "月坛南街南站",
        "name:zh": "月坛南街南站",
        "public_transport": "stop_position"
      }
    },
    {
      "type": "node",
      "id": 1721502367,
      "lat": 39.918548,
      "lon": 116.3385377,
      "tags": {
        "bus": "yes",
        "name": "月坛北街北站",
        "name:zh": "月坛北街北站",
        "public_transport": "stop_position"
      }
    },
    {
      "type": "node",
      "id": 1721502370,
      "lat": 39.8970112,
      "lon": 116.3449295,
      "tags": {
        "bus": "yes",
        "name": "天宁寺桥东",
        "name:zh": "天宁寺桥东",
        "public_transport": "stop_position"
      }
    },
    {
      "type": "node",
      "id": 1721502374,
      "lat": 39.8971273,
      "lon": 116.347307,
      "tags": {
        "bus": "yes",
        "name": "西便门",
        "name:zh": "西便门",
        "public_transport": "stop_position"
      }
    },
    {
      "type": "node",
      "id": 1721546354,
      "lat": 39.8978611,
      "lon": 116.3422049,
      "tags": {
        "bus": "yes",
        "name": "天宁寺桥北",
        "name:zh": "天宁寺桥北",
        "public_transport": "stop_position"
      }
    },
    {
      "type": "node",
      "id": 1721555325,
      "lat": 39.8978424,
      "lon": 116.3416396,
      "tags": {
        "shop": "convenience"
      }
    },
    {
      "type": "node",
      "id": 1721572547,
      "lat": 39.8992958,
      "lon": 116.3361027,
      "tags": {
        "bus": "yes",
        "name": "白云观",
        "name:zh": "白云观",
        "public_transport": "stop_position"
      }
    },
    {
      "type": "node",
      "id": 1721589167,
      "lat": 39.903261,
      "lon": 116.3366306,
      "tags": {
        "amenity": "toilets",
        "fee": "no",
        "name": "白云路北口",
        "opening_hours": "Mo-Su 05:00-23:00",
        "operator": "北京市西城区环境卫生服务中心",
        "ref": "1021020371017"
      }
    },
    {
      "type": "node",
      "id": 1721589168,
      "lat": 39.9026858,
      "lon": 116.3366808,
      "tags": {
        "bus": "yes",
        "name": "白云路",
        "name:zh": "白云路",
        "name:zh-Hans": "白云路",
        "name:zh-Hant": "白雲路",
        "public_transport": "stop_position"
      }
    },
    {
      "type": "node",
      "id": 1721589170,
      "lat": 39.9018144,
      "lon": 116.3355466,
      "tags": {
        "bus": "yes",
        "name": "真武庙三里",
        "name:zh": "真武庙三里",
        "public_transport": "stop_position"
      }
    },
    {
      "type": "node",
      "id": 1721621332,
      "lat": 39.9178327,
      "lon": 116.3284868,
      "tags": {
        "bus": "yes",
        "name": "钓鱼台",
        "name:zh": "钓鱼台",
        "public_transport": "stop_position"
      }
    },
    {
      "type": "node",
      "id": 1737610056,
      "lat": 39.9018503,
      "lon": 116.3322942,
      "tags": {
        "bus": "yes",
        "name": "公安大学",
        "name:zh": "公安大学",
        "public_transport": "stop_position"
      }
    },
    {
      "type": "node",
      "id": 1737610097,
      "lat": 39.9159679,
      "lon": 116.3283852,
      "tags": {
        "bus": "yes",
        "name": "钓鱼台",
        "name:zh": "钓鱼台",
        "public_transport": "stop_position"
      }
    },
    {
      "type": "node",
      "id": 1737630863,
      "lat": 39.9033099,
      "lon": 116.3571315,
      "tags": {
        "bus": "yes",
        "name": "新文化街西口",
        "name:zh": "新文化街西口",
        "public_transport": "stop_position"
      }
    },
    {
      "type": "node",
      "id": 1737630864,
      "lat": 39.9034218,
      "lon": 116.3570153,
      "tags": {
        "bus": "yes",
        "name": "新文化街西口",
        "name:zh": "新文化街西口",
        "public_transport": "stop_position"
      }
    },
    {
      "type": "node",
      "id": 1737630866,
      "lat": 39.8989846,
      "lon": 116.3572262,
      "tags": {
        "bus": "yes",
        "name": "长椿街路口北",
        "name:zh": "长椿街路口北",
        "public_transport": "stop_position"
      }
    },
    {
      "type": "node",
      "id": 1737630867,
      "lat": 39.8989754,
      "lon": 116.3570973,
      "tags": {
        "bus": "yes",
        "name": "长椿街路口北",
        "name:zh": "长椿街路口北",
        "public_transport": "stop_position"
      }
    },
    {
      "type": "node",
      "id": 1737702621,
      "lat": 39.9154424,
      "lon": 116.3506092,
      "tags": {
        "bus": "yes",
        "name": "月坛体育场",
        "name:zh": "月坛体育场",
        "public_transport": "stop_position"
      }
    },
    {
      "type": "node",
      "id": 1772813409,
      "lat": 39.8986746,
      "lon": 116.3151665,
      "tags": {
        "bus": "yes",
        "name": "北京世纪坛医院",
        "name:zh": "北京世纪坛医院",
        "name:zh-Hans": "北京世纪坛医院",
        "name:zh-Hant": "北京世紀壇醫院",
        "public_transport": "stop_position"
      }
    },
    {
      "type": "node",
      "id": 1836494977,
      "lat": 39.8966077,
      "lon": 116.3380485,
      "tags": {
        "bus": "yes",
        "name": "天宁寺桥西",
        "name:zh": "天宁寺桥西",
        "public_transport": "stop_position"
      }
    },
    {
      "type": "node",
      "id": 1836494983,
      "lat": 39.8966195,
      "lon": 116.3382665,
      "tags": {
        "bus": "yes",
        "name": "天宁寺桥西",
        "name:zh": "天宁寺桥西",
        "public_transport": "stop_position"
      }
    },
    {
      "type": "node",
      "id": 1836494988,
      "lat": 39.8959365,
      "lon": 116.3379742,
      "tags": {
        "name:en": "Good Neighbors",
        "name:zh": "好邻居便利店",
        "opening_hours": "24/7",
        "shop": "convenience"
      }
    },
    {
      "type": "node",
      "id": 1836494994,
      "lat": 39.8959451,
      "lon": 116.3358754,
      "tags": {
        "amenity": "toilets",
        "fee": "no",
        "name": "莲花池东路小马厂公交站",
        "opening_hours": "Mo-Su 05:00-23:00; Apr-Oct Mo-Su 05:00-24:00",
        "operator": "北京市唐杰城市节能环保科技发展有限公司",
        "ref": "029"
      }
    },
    {
      "type": "node",
      "id": 1836495022,
      "lat": 39.8961478,
      "lon": 116.3402152,
      "tags": {
        "amenity": "toilets",
        "fee": "no",
        "name": "莲花池东路长江国际俱乐部东",
        "opening_hours": "Mo-Su 05:00-23:00; Apr-Oct Mo-Su 05:00-24:00",
        "operator": "北京市唐杰城市节能环保科技发展有限公司",
        "ref": "041"
      }
    },
    {
      "type": "node",
      "id": 1836504884,
      "lat": 39.8964215,
      "lon": 116.3344869,
      "tags": {
        "bus": "yes",
        "name": "白云桥西",
        "name:zh": "白云桥西",
        "public_transport": "stop_position"
      }
    },
    {
      "type": "node",
      "id": 1836518307,
      "lat": 39.8961335,
      "lon": 116.328593,
      "tags": {
        "bus": "yes",
        "name": "小马厂",
        "name:zh": "小马厂",
        "public_transport": "stop_position"
      }
    },
    {
      "type": "node",
      "id": 1836518311,
      "lat": 39.8961491,
      "lon": 116.3288651,
      "tags": {
        "bus": "yes",
        "name": "小马厂",
        "name:zh": "小马厂",
        "public_transport": "stop_position"
      }
    },
    {
      "type": "node",
      "id": 1836518318,
      "lat": 39.8964574,
      "lon": 116.3285726,
      "tags": {
        "bus": "yes",
        "name": "小马厂",
        "name:zh": "小马厂",
        "public_transport": "stop_position"
      }
    },
    {
      "type": "node",
      "id": 1836524014,
      "lat": 39.8957023,
      "lon": 116.3287921,
      "tags": {
        "bus": "yes",
        "name": "小马厂",
        "name:zh": "小马厂",
        "public_transport": "stop_position"
      }
    },
    {
      "type": "node",
      "id": 1836524017,
      "lat": 39.895744,
      "lon": 116.329643,
      "tags": {
        "bus": "yes",
        "name": "小马厂",
        "name:zh": "小马厂",
        "public_transport": "stop_position"
      }
    },
    {
      "type": "node",
      "id": 1836524020,
      "lat": 39.8957557,
      "lon": 116.3298553,
      "tags": {
        "bus": "yes",
        "name": "小马厂",
        "name:zh": "小马厂",
        "public_transport": "stop_position"
      }
    },
    {
      "type": "node",
      "id": 1836570152,
      "lat": 39.9036399,
      "lon": 116.3151793,
      "tags": {
        "bus": "yes",
        "name": "皇亭子",
        "name:zh": "皇亭子",
        "public_transport": "stop_position"
      }
    },
    {
      "type": "node",
      "id": 1861592890,
      "lat": 39.9047406,
      "lon": 116.3371964,
      "tags": {
        "bus": "yes",
        "name": "白云路",
        "name:en": "Baiyun Road",
        "name:zh": "白云路",
        "name:zh-Hans": "白云路",
        "name:zh-Hant": "白雲路",
        "public_transport": "stop_position"
      }
    },
    {
      "type": "node",
      "id": 1861655014,
      "lat": 39.9058674,
      "lon": 116.3393545,
      "tags": {
        "bus": "yes",
        "name": "工会大楼",
        "name:zh": "工会大楼",
        "public_transport": "stop_position"
      }
    },
    {
      "type": "node",
      "id": 1885548573,
      "lat": 39.9014825,
      "lon": 116.3150379,
      "tags": {
        "bus": "yes",
        "name": "皇亭子",
        "name:zh": "皇亭子",
        "public_transport": "stop_position"
      }
    },
    {
      "type": "node",
      "id": 1886848841,
      "lat": 39.8921719,
      "lon": 116.3227397,
      "tags": {
        "bus": "yes",
        "name": "广莲路",
        "name:zh": "广莲路",
        "public_transport": "stop_position"
      }
    },
    {
      "type": "node",
      "id": 2010673385,
      "lat": 39.9059192,
      "lon": 116.3581605,
      "tags": {
        "bus": "yes",
        "name": "民族文化宫",
        "name:zh": "民族文化宫",
        "public_transport": "stop_position"
      }
    },
    {
      "type": "node",
      "id": 2010680210,
      "lat": 39.9072808,
      "lon": 116.3380857,
      "tags": {
        "bus": "yes",
        "name": "三里河东路南口",
        "name:zh": "三里河东路南口",
        "public_transport": "stop_position"
      }
    },
    {
      "type": "node",
      "id": 2010691742,
      "lat": 39.913987,
      "lon": 116.3389417,
      "tags": {
        "bus": "yes",
        "name": "月坛南街北站",
        "name:zh": "月坛南街北站",
        "public_transport": "stop_position"
      }
    },
    {
      "type": "node",
      "id": 2010691745,
      "lat": 39.9181085,
      "lon": 116.3386963,
      "tags": {
        "bus": "yes",
        "name": "月坛北街北站",
        "name:zh": "月坛北街北站",
        "public_transport": "stop_position"
      }
    },
    {
      "type": "node",
      "id": 2048169005,
      "lat": 39.9042719,
      "lon": 116.3229951,
      "tags": {
        "bus": "yes",
        "highway": "bus_stop",
        "name": "会城门",
        "name:zh": "会城门",
        "public_transport": "platform"
      }
    },
    {
      "type": "node",
      "id": 2048169011,
      "lat": 39.9042741,
      "lon": 116.3228366,
      "tags": {
        "bus": "yes",
        "name": "会城门",
        "name:zh": "会城门",
        "public_transport": "stop_position"
      }
    },
    {
      "type": "node",
      "id": 2048169014,
      "lat": 39.8997817,
      "lon": 116.3229534,
      "tags": {
        "bus": "yes",
        "name": "北蜂窝路",
        "name:zh": "北蜂窝路",
        "public_transport": "stop_position"
      }
    },
    {
      "type": "node",
      "id": 2048169016,
      "lat": 39.8977292,
      "lon": 116.3230177,
      "tags": {
        "bus": "yes",
        "name": "北蜂窝路南口",
        "name:zh": "北蜂窝路南口",
        "public_transport": "stop_position"
      }
    },
    {
      "type": "node",
      "id": 2091794206,
      "lat": 39.9062609,
      "lon": 116.3152709,
      "tags": {
        "name": "军事博物馆",
        "name:de": "Militärmuseum",
        "name:en": "Military Museum",
        "name:zh": "军事博物馆",
        "name:zh-Latn-pinyin": "Jūnshì Bówùguǎn",
        "public_transport": "stop_position",
        "railway": "stop",
        "subway": "yes"
      }
    },
    {
      "type": "node",
      "id": 2098962180,
      "lat": 39.920794,
      "lon": 116.3468924,
      "tags": {
        "bus": "yes",
        "name": "阜成门",
        "name:zh": "阜成门",
        "public_transport": "stop_position"
      }
    },
    {
      "type": "node",
      "id": 2262757727,
      "lat": 39.905915,
      "lon": 116.3256406,
      "tags": {
        "bus": "yes",
        "name": "木樨地西",
        "name:zh": "木樨地西",
        "public_transport": "stop_position"
      }
    },
    {
      "type": "node",
      "id": 2262757728,
      "lat": 39.9059132,
      "lon": 116.3259468,
      "tags": {
        "bus": "yes",
        "name": "木樨地西",
        "name:zh": "木樨地西",
        "public_transport": "stop_position"
      }
    },
    {
      "type": "node",
      "id": 2262757729,
      "lat": 39.9059104,
      "lon": 116.3263805,
      "tags": {
        "bus": "yes",
        "name": "木樨地西",
        "name:zh": "木樨地西",
        "public_transport": "stop_position"
      }
    },
    {
      "type": "node",
      "id": 2262757730,
      "lat": 39.9059076,
      "lon": 116.32679,
      "tags": {
        "bus": "yes",
        "name": "木樨地西",
        "name:zh": "木樨地西",
        "public_transport": "stop_position"
      }
    },
    {
      "type": "node",
      "id": 2262773428,
      "lat": 39.9100681,
      "lon": 116.3283305,
      "tags": {
        "bench": "no",
        "bus": "yes",
        "highway": "bus_stop",
        "name": "木樨地北",
        "name:zh": "木樨地北",
        "public_transport": "platform",
        "shelter": "no"
      }
    },
    {
      "type": "node",
      "id": 2262773429,
      "lat": 39.9100892,
      "lon": 116.3284004,
      "tags": {
        "bus": "yes",
        "name": "木樨地北",
        "name:zh": "木樨地北",
        "public_transport": "stop_position"
      }
    },
    {
      "type": "node",
      "id": 2262802930,
      "lat": 39.906415,
      "lon": 116.3260838,
      "tags": {
        "bus": "yes",
        "name": "木樨地西",
        "name:zh": "木樨地西",
        "public_transport": "stop_position"
      }
    },
    {
      "type": "node",
      "id": 2262802931,
      "lat": 39.9064071,
      "lon": 116.3264763,
      "tags": {
        "bus": "yes",
        "name": "木樨地西",
        "name:zh": "木樨地西",
        "public_transport": "stop_position"
      }
    },
    {
      "type": "node",
      "id": 2262802932,
      "lat": 39.9064051,
      "lon": 116.3267198,
      "tags": {
        "bus": "yes",
        "name": "木樨地西",
        "name:zh": "木樨地西",
        "public_transport": "stop_position"
      }
    },
    {
      "type": "node",
      "id": 2262802933,
      "lat": 39.9064031,
      "lon": 116.3272234,
      "tags": {
        "bus": "yes",
        "name": "木樨地西",
        "name:zh": "木樨地西",
        "public_transport": "stop_position"
      }
    },
    {
      "type": "node",
      "id": 2343517435,
      "lat": 39.895193,
      "lon": 116.3219331,
      "tags": {
        "amenity": "bank",
        "brand": "中国银行",
        "brand:en": "Bank of China",
        "brand:wikidata": "Q790068",
        "brand:wikipedia": "en:Bank of China",
        "brand:zh": "中国银行",
        "name": "中国银行",
        "name:en": "Bank of China",
        "name:zh": "中国银行"
      }
    },
    {
      "type": "node",
      "id": 2343517436,
      "lat": 39.8945917,
      "lon": 116.318878,
      "tags": {
        "tourism": "hotel"
      }
    },
    {
      "type": "node",
      "id": 2343517439,
      "lat": 39.8952173,
      "lon": 116.3220086,
      "tags": {
        "amenity": "atm",
        "brand": "中国银行",
        "brand:en": "Bank of China",
        "brand:wikidata": "Q790068",
        "brand:wikipedia": "en:Bank of China",
        "brand:zh": "中国银行",
        "name": "中国银行",
        "name:en": "Bank of China",
        "name:zh": "中国银行",
        "operator": "中国银行",
        "operator:wikidata": "Q790068",
        "operator:wikipedia": "en:Bank of China"
      }
    },
    {
      "type": "node",
      "id": 2363154564,
      "lat": 39.9208339,
      "lon": 116.3385191,
      "tags": {
        "bus": "yes",
        "name": "展览路口南",
        "name:zh": "展览路口南",
        "public_transport": "stop_position"
      }
    },
    {
      "type": "node",
      "id": 2363154571,
      "lat": 39.9081836,
      "lon": 116.3293661,
      "tags": {
        "bus": "yes",
        "name": "木樨地北",
        "name:zh": "木樨地北",
        "public_transport": "stop_position"
      }
    },
    {
      "type": "node",
      "id": 2383192291,
      "lat": 39.9087316,
      "lon": 116.3571234,
      "tags": {
        "bus": "yes",
        "name": "太平桥",
        "name:zh": "太平桥",
        "public_transport": "stop_position"
      }
    },
    {
      "type": "node",
      "id": 2383192292,
      "lat": 39.9095425,
      "lon": 116.3569463,
      "tags": {
        "bus": "yes",
        "name": "太平桥",
        "name:zh": "太平桥",
        "public_transport": "stop_position"
      }
    },
    {
      "type": "node",
      "id": 2433585097,
      "lat": 39.9160693,
      "lon": 116.347331,
      "tags": {
        "bus": "yes",
        "name": "月坛公园",
        "name:zh": "月坛公园",
        "public_transport": "stop_position"
      }
    },
    {
      "type": "node",
      "id": 2433585100,
      "lat": 39.9165929,
      "lon": 116.347284,
      "tags": {
        "bus": "yes",
        "name": "月坛公园",
        "name:zh": "月坛公园",
        "public_transport": "stop_position"
      }
    },
    {
      "type": "node",
      "id": 2433585103,
      "lat": 39.9175042,
      "lon": 116.3472085,
      "tags": {
        "bus": "yes",
        "name": "月坛公园",
        "name:zh": "月坛公园",
        "public_transport": "stop_position"
      }
    },
    {
      "type": "node",
      "id": 2433585106,
      "lat": 39.9189247,
      "lon": 116.3471049,
      "tags": {
        "bus": "yes",
        "name": "月坛公园",
        "name:zh": "月坛公园",
        "public_transport": "stop_position"
      }
    },
    {
      "type": "node",
      "id": 2433585110,
      "lat": 39.8998242,
      "lon": 116.3447992,
      "tags": {
        "bus": "yes",
        "name": "西便门外",
        "name:zh": "西便门外",
        "public_transport": "stop_position"
      }
    },
    {
      "type": "node",
      "id": 2433585113,
      "lat": 39.8998363,
      "lon": 116.3451486,
      "tags": {
        "bus": "yes",
        "name": "西便门外",
        "name:zh": "西便门外",
        "public_transport": "stop_position"
      }
    },
    {
      "type": "node",
      "id": 2477693657,
      "lat": 39.9042618,
      "lon": 116.3299063,
      "tags": {
        "name": "国宏宾馆",
        "tourism": "hotel"
      }
    },
    {
      "type": "node",
      "id": 2490857432,
      "lat": 39.9201231,
      "lon": 116.3469521,
      "tags": {
        "bus": "yes",
        "name": "南礼士路北口",
        "name:zh": "南礼士路北口",
        "public_transport": "stop_position"
      }
    },
    {
      "type": "node",
      "id": 2558588438,
      "lat": 39.8992753,
      "lon": 116.336012,
      "tags": {
        "bus": "yes",
        "name": "白云观",
        "name:zh": "白云观",
        "public_transport": "stop_position"
      }
    },
    {
      "type": "node",
      "id": 2803000701,
      "lat": 39.913693,
      "lon": 116.356002,
      "tags": {
        "amenity": "restaurant",
        "drive_in": "no",
        "internet_access": "wlan",
        "internet_access:fee": "no",
        "name": "孔乙己小馆",
        "organic": "only",
        "smoking": "separated"
      }
    },
    {
      "type": "node",
      "id": 2812778790,
      "lat": 39.9140626,
      "lon": 116.3556263,
      "tags": {
        "name": "金融街购物中心",
        "shop": "mall",
        "wikidata": "Q48936389",
        "wikimedia_commons": "Category:Seasons Place",
        "wikipedia": "zh:金融街购物中心"
      }
    },
    {
      "type": "node",
      "id": 3369459799,
      "lat": 39.8881785,
      "lon": 116.331697,
      "tags": {
        "name": "达官营",
        "name:en": "Daguanying",
        "public_transport": "stop_position",
        "railway": "stop",
        "subway": "yes"
      }
    },
    {
      "type": "node",
      "id": 3369459803,
      "lat": 39.8882751,
      "lon": 116.3317051,
      "tags": {
        "name": "达官营",
        "name:en": "Daguanying",
        "public_transport": "stop_position",
        "railway": "stop",
        "subway": "yes"
      }
    },
    {
      "type": "node",
      "id": 3369459849,
      "lat": 39.888892,
      "lon": 116.3293717,
      "tags": {
        "name": "达官营",
        "name:en": "Daguanying",
        "name:ru": "Дагуаньин",
        "name:zh": "达官营",
        "public_transport": "station",
        "railway": "station",
        "station": "subway",
        "subway": "yes",
        "wikidata": "Q15929607"
      }
    },
    {
      "type": "node",
      "id": 3411330095,
      "lat": 39.8951083,
      "lon": 116.3252144,
      "tags": {
        "railway": "switch",
        "ref": "1203"
      }
    },
    {
      "type": "node",
      "id": 3411330096,
      "lat": 39.8952713,
      "lon": 116.325863,
      "tags": {
        "railway": "switch",
        "ref": "1005"
      }
    },
    {
      "type": "node",
      "id": 3453825357,
      "lat": 39.8900554,
      "lon": 116.3400979,
      "tags": {
        "access": "yes",
        "amenity": "toilets",
        "female": "yes"
      }
    },
    {
      "type": "node",
      "id": 4275052090,
      "lat": 39.9059011,
      "lon": 116.3187226,
      "tags": {
        "amenity": "bank",
        "brand": "中国银行",
        "brand:en": "Bank of China",
        "brand:wikidata": "Q790068",
        "brand:wikipedia": "en:Bank of China",
        "brand:zh": "中国银行",
        "name": "中国银行",
        "name:en": "Bank of China",
        "name:zh": "中国银行"
      }
    },
    {
      "type": "node",
      "id": 4275116190,
      "lat": 39.9059027,
      "lon": 116.3185646,
      "tags": {
        "amenity": "fast_food",
        "brand": "McDonald's",
        "brand:zh": "麦当劳",
        "cuisine": "american;burger",
        "name:en": "McDonald's",
        "name:zh": "麦当劳",
        "name:zh-Latn-pinyin": "Màidāngláo",
        "website": "http://mcdonalds.com.cn"
      }
    },
    {
      "type": "node",
      "id": 4275133989,
      "lat": 39.9050622,
      "lon": 116.3187933,
      "tags": {
        "amenity": "fast_food",
        "name": "Beijing pancake and noodles"
      }
    },
    {
      "type": "node",
      "id": 4275134089,
      "lat": 39.9058329,
      "lon": 116.3187246,
      "tags": {
        "shop": "convenience"
      }
    },
    {
      "type": "node",
      "id": 4312799093,
      "lat": 39.8885602,
      "lon": 116.3405365,
      "tags": {
        "bus": "yes",
        "highway": "bus_stop",
        "name": "广外关厢",
        "name:zh": "广外关厢",
        "public_transport": "platform"
      }
    },
    {
      "type": "node",
      "id": 4316720413,
      "lat": 39.8981582,
      "lon": 116.3442533,
      "tags": {
        "name": "莫泰168",
        "name:en": "Motel168",
        "tourism": "hotel"
      }
    },
    {
      "type": "node",
      "id": 4316720469,
      "lat": 39.897964,
      "lon": 116.3442036,
      "tags": {
        "amenity": "parking"
      }
    },
    {
      "type": "node",
      "id": 4316720628,
      "lat": 39.8986955,
      "lon": 116.3452041,
      "tags": {
        "amenity": "restaurant"
      }
    },
    {
      "type": "node",
      "id": 4320677533,
      "lat": 39.9010223,
      "lon": 116.3436165,
      "tags": {
        "addr:city": "北京",
        "addr:postcode": "100045",
        "addr:street": "真武庙六里",
        "amenity": "pharmacy",
        "drive_through": "no",
        "healthcare": "pharmacy",
        "name": "白塔寺药店",
        "opening_hours": "24小时"
      }
    },
    {
      "type": "node",
      "id": 4321027457,
      "lat": 39.9013827,
      "lon": 116.341458,
      "tags": {
        "name": "好邻居",
        "name:en": "Good Neighbors",
        "name:zh": "好邻居便利店",
        "shop": "convenience"
      }
    },
    {
      "type": "node",
      "id": 4322613796,
      "lat": 39.9017682,
      "lon": 116.3409414,
      "tags": {
        "bus": "yes",
        "name": "真武庙四里",
        "name:zh": "真武庙四里",
        "public_transport": "stop_position"
      }
    },
    {
      "type": "node",
      "id": 4322621300,
      "lat": 39.9017664,
      "lon": 116.3414883,
      "tags": {
        "bus": "yes",
        "name": "真武庙四里",
        "name:zh": "真武庙四里",
        "public_transport": "stop_position"
      }
    },
    {
      "type": "node",
      "id": 4322635119,
      "lat": 39.9020055,
      "lon": 116.350149,
      "tags": {
        "bus": "yes",
        "name": "复兴门南",
        "name:zh": "复兴门南",
        "public_transport": "stop_position"
      }
    },
    {
      "type": "node",
      "id": 4461117990,
      "lat": 39.8957252,
      "lon": 116.3410709,
      "tags": {
        "name:en": "Orange hotel",
        "tourism": "motel"
      }
    },
    {
      "type": "node",
      "id": 4564112811,
      "lat": 39.9077017,
      "lon": 116.3277725,
      "tags": {
        "name": "木樨地",
        "name:en": "Muxidi",
        "name:ru": "Мусиди",
        "public_transport": "station",
        "railway": "station",
        "start_date": "2022-12-31",
        "station": "subway",
        "subway": "yes",
        "wikidata": "Q842107",
        "wikipedia": "en:Muxidi station"
      }
    },
    {
      "type": "node",
      "id": 4564112816,
      "lat": 39.9139393,
      "lon": 116.328872,
      "tags": {
        "name": "玉渊潭东门",
        "name:en": "East Gate of Yuyuantan Park",
        "name:ru": "Восточные ворота парка Юйюаньтань",
        "public_transport": "station",
        "railway": "station",
        "station": "subway",
        "subway": "yes",
        "wikidata": "Q78144946",
        "wikipedia": "en:Yuyuantan Dongmen (Yuyuantan Park East Gate) station"
      }
    },
    {
      "type": "node",
      "id": 4748124924,
      "lat": 39.922195,
      "lon": 116.3358452,
      "tags": {
        "addr:housenumber": "259",
        "addr:postcode": "100037",
        "addr:street": "阜成门外大街",
        "name": "天意市场",
        "name:en": "Tianyi wholesale market",
        "name:zh": "天意市场",
        "shop": "department_store"
      }
    },
    {
      "type": "node",
      "id": 4769094806,
      "lat": 39.89048,
      "lon": 116.3294331,
      "tags": {
        "addr:full": "北京市西城区广安门外大街305号1号楼",
        "branch": "北京西站达官营地铁站店（内宾）",
        "brand": "速8酒店",
        "brand:en": "Super 8",
        "brand:wikidata": "Q5364003",
        "brand:wikipedia": "zh:速8酒店",
        "brand:zh": "速8酒店",
        "name": "速8酒店",
        "name:en": "Super 8",
        "name:zh": "速8酒店",
        "ref": "3631",
        "tourism": "hotel",
        "website": "http://www.super8.com.cn"
      }
    },
    {
      "type": "node",
      "id": 4769095775,
      "lat": 39.8896259,
      "lon": 116.3462121,
      "tags": {
        "addr:full": "北京市西城区核桃园东街1--8号楼",
        "branch": "北京广安门中医院店(内宾)",
        "brand": "速8酒店",
        "brand:en": "Super 8",
        "brand:wikidata": "Q5364003",
        "brand:wikipedia": "zh:速8酒店",
        "brand:zh": "速8酒店",
        "name": "速8酒店",
        "name:en": "Super 8",
        "ref": "3824",
        "tourism": "motel",
        "website": "http://www.super8.com.cn"
      }
    },
    {
      "type": "node",
      "id": 4769095794,
      "lat": 39.8971198,
      "lon": 116.3470861,
      "tags": {
        "addr:full": "北京市西城区西便门东里13号楼2-4层及一层大堂",
        "branch": "北京长椿街地铁站西便门店",
        "brand": "速8酒店",
        "brand:en": "Super 8",
        "brand:wikidata": "Q5364003",
        "brand:wikipedia": "zh:速8酒店",
        "brand:zh": "速8酒店",
        "name": "速8酒店",
        "name:en": "Super 8",
        "name:zh": "速8酒店",
        "ref": "3830",
        "tourism": "hotel",
        "website": "http://www.super8.com.cn"
      }
    },
    {
      "type": "node",
      "id": 4807414522,
      "lat": 39.8984341,
      "lon": 116.3174894,
      "tags": {
        "addr:housenumber": "17",
        "addr:postcode": "100038",
        "addr:street": "北蜂窝中路",
        "internet_access": "wlan",
        "name:en": "Tongliantaihe Hotel",
        "tourism": "hotel"
      }
    },
    {
      "type": "node",
      "id": 4916794978,
      "lat": 39.9064295,
      "lon": 116.3511394,
      "tags": {
        "railway": "subway_entrance",
        "ref": "A"
      }
    },
    {
      "type": "node",
      "id": 4916795672,
      "lat": 39.9059604,
      "lon": 116.3513214,
      "tags": {
        "railway": "subway_entrance",
        "ref": "B"
      }
    },
    {
      "type": "node",
      "id": 4916796327,
      "lat": 39.9056815,
      "lon": 116.351316,
      "tags": {
        "railway": "subway_entrance",
        "ref": "C"
      }
    },
    {
      "type": "node",
      "id": 4916796666,
      "lat": 39.9056136,
      "lon": 116.3511229,
      "tags": {
        "railway": "subway_entrance",
        "ref": "D"
      }
    },
    {
      "type": "node",
      "id": 5008853022,
      "lat": 39.9168082,
      "lon": 116.3257941,
      "tags": {
        "name:de": "Fanghua Garden",
        "tourism": "attraction"
      }
    },
    {
      "type": "node",
      "id": 5115960684,
      "lat": 39.9164986,
      "lon": 116.3439837,
      "tags": {
        "amenity": "parking"
      }
    },
    {
      "type": "node",
      "id": 5164342639,
      "lat": 39.9182095,
      "lon": 116.3473182,
      "tags": {
        "amenity": "restaurant",
        "name": "四季民福烤鸭店"
      }
    },
    {
      "type": "node",
      "id": 5225454025,
      "lat": 39.9091378,
      "lon": 116.314246,
      "tags": {
        "amenity": "bank"
      }
    },
    {
      "type": "node",
      "id": 5430395013,
      "lat": 39.905948,
      "lon": 116.3505107,
      "tags": {
        "name": "复兴门",
        "name:en": "Fuxingmen",
        "public_transport": "station",
        "railway": "station",
        "station": "subway",
        "subway": "yes",
        "wikidata": "Q1037957"
      }
    },
    {
      "type": "node",
      "id": 5430417411,
      "lat": 39.9061218,
      "lon": 116.3178241,
      "tags": {
        "name": "军事博物馆",
        "name:en": "Military Museum",
        "operator": "北京市地铁运营",
        "public_transport": "station",
        "railway": "station",
        "station": "subway",
        "subway": "yes",
        "wikidata": "Q5976309",
        "wikipedia": "zh:军事博物馆站"
      }
    },
    {
      "type": "node",
      "id": 5723775765,
      "lat": 39.9087734,
      "lon": 116.357093,
      "tags": {
        "name": "太平桥",
        "name:zh": "太平桥",
        "public_transport": "stop_position",
        "railway": "stop",
        "subway": "yes"
      }
    },
    {
      "type": "node",
      "id": 5725382823,
      "lat": 39.8880433,
      "lon": 116.3329857,
      "tags": {
        "amenity": "bank",
        "brand": "中国邮政储蓄银行",
        "brand:en": "Postal Savings Bank of China",
        "brand:wikidata": "Q986744",
        "brand:wikipedia": "en:Postal Savings Bank of China",
        "brand:zh": "中国邮政储蓄银行",
        "name": "中国邮政储蓄银行",
        "name:en": "Postal Savings Bank of China",
        "name:zh": "中国邮政储蓄银行"
      }
    },
    {
      "type": "node",
      "id": 5725383122,
      "lat": 39.8880412,
      "lon": 116.3334754,
      "tags": {
        "amenity": "fast_food",
        "brand": "麦当劳",
        "brand:en": "McDonald's",
        "brand:wikidata": "Q38076",
        "brand:wikipedia": "zh:麦当劳",
        "brand:zh": "麦当劳",
        "brand:zh-Hans": "麦当劳",
        "cuisine": "burger",
        "name": "麦当劳",
        "name:en": "McDonald's",
        "name:zh": "麦当劳",
        "name:zh-Hans": "麦当劳",
        "takeaway": "yes"
      }
    },
    {
      "type": "node",
      "id": 5771950253,
      "lat": 39.9160815,
      "lon": 116.3531159,
      "tags": {
        "addr:city": "Beijing",
        "addr:district": "Xicheng",
        "addr:housenumber": "9C",
        "addr:postcode": "100140",
        "addr:province": "Beijing",
        "addr:street": "Financial Street",
        "name": "北京金融街威斯汀大酒店",
        "name:en": "The Westin Beijing Financial Street",
        "rooms": "483",
        "tourism": "hotel",
        "wikidata": "Q56271895",
        "wikimedia_commons": "Category:The Westin Beijing Financial Street",
        "wikipedia": "zh:北京金融街威斯汀大酒店"
      }
    },
    {
      "type": "node",
      "id": 5858695285,
      "lat": 39.9087525,
      "lon": 116.3516183,
      "tags": {
        "addr:housenumber": "10",
        "addr:street": "复兴门北顺城街",
        "amenity": "bank",
        "brand": "南京银行",
        "brand:en": "Bank of Nanjing",
        "brand:wikidata": "Q6850542",
        "brand:wikipedia": "zh:南京银行",
        "brand:zh": "南京银行",
        "name": "南京银行",
        "name:en": "Bank of Nanjing",
        "name:zh": "南京银行"
      }
    },
    {
      "type": "node",
      "id": 5968572993,
      "lat": 39.9065462,
      "lon": 116.3382557,
      "tags": {
        "amenity": "cafe",
        "brand": "星巴克",
        "brand:en": "Starbucks",
        "brand:wikidata": "Q37158",
        "brand:wikipedia": "zh:星巴克",
        "brand:zh": "星巴克",
        "cuisine": "coffee_shop",
        "internet_access": "wlan",
        "name": "星巴克",
        "name:en": "Starbucks",
        "name:zh": "星巴克",
        "phone": "+86 10 6805 6720",
        "takeaway": "yes"
      }
    },
    {
      "type": "node",
      "id": 6052523996,
      "lat": 39.9215457,
      "lon": 116.3381859,
      "tags": {
        "shop": "supermarket"
      }
    },
    {
      "type": "node",
      "id": 6052523998,
      "lat": 39.8966254,
      "lon": 116.3310814,
      "tags": {
        "brand": "物美",
        "brand:en": "Wumart",
        "brand:wikidata": "Q8039225",
        "brand:wikipedia": "zh:物美商業",
        "brand:zh": "物美",
        "name": "物美",
        "name:en": "Wumart",
        "name:zh": "物美",
        "shop": "supermarket"
      }
    },
    {
      "type": "node",
      "id": 6052526985,
      "lat": 39.8876916,
      "lon": 116.3352943,
      "tags": {
        "amenity": "fast_food",
        "brand": "汉堡王",
        "brand:en": "Burger King",
        "brand:wikidata": "Q177054",
        "brand:wikipedia": "zh:漢堡王",
        "brand:zh": "汉堡王",
        "cuisine": "burger",
        "name": "汉堡王",
        "name:en": "Burger King",
        "name:zh": "汉堡王",
        "takeaway": "yes"
      }
    },
    {
      "type": "node",
      "id": 6583835704,
      "lat": 39.9053009,
      "lon": 116.3398677,
      "tags": {
        "addr:housenumber": "1",
        "addr:street": "真武庙路",
        "alt_name": "China Palace Hotel",
        "name": "中国职工之家酒店",
        "tourism": "hotel",
        "wikidata": "Q30949940",
        "wikipedia": "zh:中国职工之家"
      }
    },
    {
      "type": "node",
      "id": 6617849501,
      "lat": 39.9061161,
      "lon": 116.3315051,
      "tags": {
        "name": "木樨地",
        "name:en": "Muxidi",
        "name:zh": "木樨地",
        "public_transport": "station",
        "railway": "station",
        "station": "subway",
        "subway": "yes",
        "wikidata": "Q842107",
        "wikipedia": "zh:木樨地站"
      }
    },
    {
      "type": "node",
      "id": 6617849502,
      "lat": 39.9058662,
      "lon": 116.3465697,
      "tags": {
        "name": "南礼士路",
        "name:en": "South Lishi Road",
        "name:zh": "南礼士路",
        "public_transport": "station",
        "railway": "station",
        "station": "subway",
        "subway": "yes"
      }
    },
    {
      "type": "node",
      "id": 6712456203,
      "lat": 39.8951765,
      "lon": 116.3263026,
      "tags": {
        "railway": "buffer_stop"
      }
    },
    {
      "type": "node",
      "id": 6712456214,
      "lat": 39.8949887,
      "lon": 116.3248798,
      "tags": {
        "railway": "switch",
        "railway:switch": "double_slip",
        "ref": "1025;1027;1029;1031"
      }
    },
    {
      "type": "node",
      "id": 6712456215,
      "lat": 39.8952402,
      "lon": 116.3253625,
      "tags": {
        "railway": "buffer_stop"
      }
    },
    {
      "type": "node",
      "id": 6724644888,
      "lat": 39.8980394,
      "lon": 116.3572147,
      "tags": {
        "name": "长椿街",
        "name:en": "Changchun Street",
        "name:zh": "长椿街",
        "public_transport": "station",
        "railway": "station",
        "station": "subway",
        "subway": "yes"
      }
    },
    {
      "type": "node",
      "id": 6813526300,
      "lat": 39.9049115,
      "lon": 116.3231081,
      "tags": {
        "amenity": "restaurant",
        "cuisine": "korean",
        "name": "Dantiajia"
      }
    },
    {
      "type": "node",
      "id": 6817425126,
      "lat": 39.8877142,
      "lon": 116.337294,
      "tags": {
        "railway": "switch",
        "ref": "1"
      }
    },
    {
      "type": "node",
      "id": 6817425128,
      "lat": 39.8877119,
      "lon": 116.3372298,
      "tags": {
        "railway": "switch",
        "ref": "5"
      }
    },
    {
      "type": "node",
      "id": 6869088348,
      "lat": 39.8934409,
      "lon": 116.3189489,
      "tags": {
        "access": "private",
        "railway": "crossing"
      }
    },
    {
      "type": "node",
      "id": 6869098276,
      "lat": 39.8935013,
      "lon": 116.3189491,
      "tags": {
        "access": "private",
        "railway": "crossing"
      }
    },
    {
      "type": "node",
      "id": 6869109975,
      "lat": 39.8941953,
      "lon": 116.3189503,
      "tags": {
        "access": "private",
        "railway": "crossing"
      }
    },
    {
      "type": "node",
      "id": 6869111125,
      "lat": 39.8940786,
      "lon": 116.3189501,
      "tags": {
        "access": "private",
        "railway": "crossing"
      }
    },
    {
      "type": "node",
      "id": 6869111366,
      "lat": 39.8931002,
      "lon": 116.3189483,
      "tags": {
        "access": "private",
        "railway": "crossing"
      }
    },
    {
      "type": "node",
      "id": 6869112114,
      "lat": 39.8938436,
      "lon": 116.3189497,
      "tags": {
        "access": "private",
        "railway": "crossing"
      }
    },
    {
      "type": "node",
      "id": 6869112718,
      "lat": 39.893195,
      "lon": 116.3189485,
      "tags": {
        "access": "private",
        "railway": "crossing"
      }
    },
    {
      "type": "node",
      "id": 6869113181,
      "lat": 39.8936091,
      "lon": 116.3189492,
      "tags": {
        "access": "private",
        "railway": "crossing"
      }
    },
    {
      "type": "node",
      "id": 6869113614,
      "lat": 39.8936585,
      "lon": 116.3189493,
      "tags": {
        "access": "private",
        "railway": "crossing"
      }
    },
    {
      "type": "node",
      "id": 6869113821,
      "lat": 39.8929492,
      "lon": 116.3189615,
      "tags": {
        "access": "private",
        "railway": "crossing"
      }
    },
    {
      "type": "node",
      "id": 6869113955,
      "lat": 39.8940088,
      "lon": 116.31895,
      "tags": {
        "access": "private",
        "railway": "crossing"
      }
    },
    {
      "type": "node",
      "id": 6869114426,
      "lat": 39.8930421,
      "lon": 116.3189502,
      "tags": {
        "access": "private",
        "railway": "crossing"
      }
    },
    {
      "type": "node",
      "id": 6869115363,
      "lat": 39.8927987,
      "lon": 116.3190051,
      "tags": {
        "access": "private",
        "railway": "crossing"
      }
    },
    {
      "type": "node",
      "id": 6869116154,
      "lat": 39.8938924,
      "lon": 116.3189498,
      "tags": {
        "access": "private",
        "railway": "crossing"
      }
    },
    {
      "type": "node",
      "id": 6869116315,
      "lat": 39.8928821,
      "lon": 116.3189801,
      "tags": {
        "access": "private",
        "railway": "crossing"
      }
    },
    {
      "type": "node",
      "id": 6869116449,
      "lat": 39.8942505,
      "lon": 116.3189504,
      "tags": {
        "access": "private",
        "railway": "crossing"
      }
    },
    {
      "type": "node",
      "id": 6869116692,
      "lat": 39.8932578,
      "lon": 116.3189486,
      "tags": {
        "access": "private",
        "railway": "crossing"
      }
    },
    {
      "type": "node",
      "id": 6869117057,
      "lat": 39.8933804,
      "lon": 116.3189488,
      "tags": {
        "access": "private",
        "railway": "crossing"
      }
    },
    {
      "type": "node",
      "id": 6869117561,
      "lat": 39.8937871,
      "lon": 116.3189496,
      "tags": {
        "access": "private",
        "railway": "crossing"
      }
    },
    {
      "type": "node",
      "id": 6869117768,
      "lat": 39.8927472,
      "lon": 116.3190206,
      "tags": {
        "access": "private",
        "railway": "crossing"
      }
    },
    {
      "type": "node",
      "id": 7394108614,
      "lat": 39.9070741,
      "lon": 116.3397835,
      "tags": {
        "amenity": "restaurant",
        "name": "龙人居酒楼"
      }
    },
    {
      "type": "node",
      "id": 7426435060,
      "lat": 39.921577,
      "lon": 116.3417323,
      "tags": {
        "brand": "便利蜂",
        "brand:en": "Bianlifeng",
        "brand:wikidata": "Q95975982",
        "brand:zh": "便利蜂",
        "name": "便利蜂",
        "name:en": "Bianlifeng",
        "name:zh": "便利蜂",
        "shop": "convenience"
      }
    },
    {
      "type": "node",
      "id": 7551643473,
      "lat": 39.906548,
      "lon": 116.3398477,
      "tags": {
        "amenity": "restaurant",
        "brand": "必胜客",
        "brand:en": "Pizza Hut",
        "brand:wikidata": "Q191615",
        "brand:wikipedia": "zh:必胜客",
        "brand:zh": "必胜客",
        "cuisine": "pizza",
        "name": "必胜客",
        "name:en": "Pizza Hut",
        "name:zh": "必胜客"
      }
    },
    {
      "type": "node",
      "id": 7551647699,
      "lat": 39.9067522,
      "lon": 116.338703,
      "tags": {
        "amenity": "restaurant",
        "brand": "呷哺呷哺",
        "brand:en": "Xiabuxiabu",
        "brand:wikidata": "Q10866036",
        "brand:wikipedia": "zh:呷哺呷哺",
        "brand:zh": "呷哺呷哺",
        "cuisine": "chinese",
        "name": "呷哺呷哺",
        "name:en": "Xiabuxiabu",
        "name:zh": "呷哺呷哺"
      }
    },
    {
      "type": "node",
      "id": 7551647700,
      "lat": 39.9066669,
      "lon": 116.3383154,
      "tags": {
        "amenity": "restaurant",
        "name": "小吊梨汤"
      }
    },
    {
      "type": "node",
      "id": 7666741006,
      "lat": 39.8882498,
      "lon": 116.3346908,
      "tags": {
        "bus": "yes",
        "name": "达官营",
        "name:zh": "达官营",
        "public_transport": "stop_position"
      }
    },
    {
      "type": "node",
      "id": 7771785314,
      "lat": 39.8872786,
      "lon": 116.3373187,
      "tags": {
        "railway": "railway_crossing",
        "ref": "菱1"
      }
    },
    {
      "type": "node",
      "id": 8011291632,
      "lat": 39.8919422,
      "lon": 116.3290165,
      "tags": {
        "amenity": "restaurant",
        "cuisine": "korean",
        "name": "韩林烤肉店"
      }
    },
    {
      "type": "node",
      "id": 8278909814,
      "lat": 39.9077148,
      "lon": 116.3276543,
      "tags": {
        "name": "木樨地（16号线）",
        "name:en": "Muxidi",
        "public_transport": "stop_position",
        "railway": "stop",
        "subway": "yes"
      }
    },
    {
      "type": "node",
      "id": 8383220923,
      "lat": 39.9122542,
      "lon": 116.3558157,
      "tags": {
        "amenity": "bank",
        "brand": "中国工商银行",
        "brand:en": "Industrial and Commercial Bank of China",
        "brand:wikidata": "Q26463",
        "brand:wikipedia": "en:Industrial and Commercial Bank of China",
        "brand:zh": "中国工商银行",
        "name": "中国工商银行",
        "name:en": "Industrial and Commercial Bank of China",
        "name:zh": "中国工商银行"
      }
    },
    {
      "type": "node",
      "id": 8593675427,
      "lat": 39.9095042,
      "lon": 116.3399126,
      "tags": {
        "amenity": "bank",
        "brand": "交通银行",
        "brand:en": "Bank of Communications",
        "brand:wikidata": "Q806680",
        "brand:wikipedia": "en:Bank of Communications",
        "brand:zh": "交通银行",
        "name": "交通银行",
        "name:en": "Bank of Communications",
        "name:zh": "交通银行"
      }
    },
    {
      "type": "node",
      "id": 8593675428,
      "lat": 39.9093827,
      "lon": 116.3399083,
      "tags": {
        "brand": "便利蜂",
        "brand:en": "Bianlifeng",
        "brand:wikidata": "Q95975982",
        "brand:wikipedia": "zh:便利蜂",
        "brand:zh": "便利蜂",
        "name": "便利蜂",
        "name:en": "Bianlifeng",
        "name:zh": "便利蜂",
        "shop": "convenience"
      }
    },
    {
      "type": "node",
      "id": 8593675430,
      "lat": 39.9066645,
      "lon": 116.3398668,
      "tags": {
        "amenity": "fast_food",
        "brand": "肯德基",
        "brand:en": "KFC",
        "brand:wikidata": "Q524757",
        "brand:wikipedia": "zh:肯德基",
        "brand:zh": "肯德基",
        "cuisine": "chicken",
        "name": "肯德基",
        "name:en": "KFC",
        "name:zh": "肯德基",
        "takeaway": "yes"
      }
    },
    {
      "type": "node",
      "id": 8593675433,
      "lat": 39.9079166,
      "lon": 116.3404086,
      "tags": {
        "amenity": "fast_food",
        "brand": "庆丰包子铺",
        "brand:en": "Qingfeng Steamed Dumpling Shop",
        "brand:wikidata": "Q24841010",
        "brand:wikipedia": "zh:庆丰包子铺",
        "brand:zh": "庆丰包子铺",
        "cuisine": "chinese",
        "name": "庆丰包子铺",
        "name:en": "Qingfeng Steamed Dumpling Shop",
        "name:zh": "庆丰包子铺",
        "takeaway": "yes"
      }
    },
    {
      "type": "node",
      "id": 8593675434,
      "lat": 39.9085722,
      "lon": 116.3399205,
      "tags": {
        "amenity": "restaurant",
        "name": "擎小儿牛肉面"
      }
    },
    {
      "type": "node",
      "id": 8593675435,
      "lat": 39.9073442,
      "lon": 116.3403484,
      "tags": {
        "brand": "罗森",
        "brand:en": "LAWSON",
        "brand:wikidata": "Q1557223",
        "brand:wikipedia": "zh:羅森 (便利店)",
        "brand:zh": "罗森",
        "name": "罗森",
        "name:en": "LAOSON",
        "name:zh": "罗森",
        "operator": "罗森（中国）投资有限公司",
        "shop": "convenience"
      }
    },
    {
      "type": "node",
      "id": 8593675436,
      "lat": 39.9092478,
      "lon": 116.3398804,
      "tags": {
        "amenity": "bank",
        "brand": "江苏银行",
        "brand:en": "Bank of Jiangsu",
        "brand:wikidata": "Q11135108",
        "brand:wikipedia": "zh:江苏银行",
        "brand:zh": "江苏银行",
        "name": "江苏银行",
        "name:en": "Bank of Jiangsu",
        "name:zh": "江苏银行"
      }
    },
    {
      "type": "node",
      "id": 8597725148,
      "lat": 39.8924843,
      "lon": 116.3199114,
      "tags": {
        "amenity": "bank",
        "brand": "北京银行",
        "brand:en": "Bank of Beijing",
        "brand:wikidata": "Q39146",
        "brand:wikipedia": "zh:北京銀行",
        "brand:zh": "北京银行",
        "name": "北京银行",
        "name:en": "Bank of Beijing",
        "name:zh": "北京银行"
      }
    },
    {
      "type": "node",
      "id": 8597725149,
      "lat": 39.8924558,
      "lon": 116.3202792,
      "tags": {
        "amenity": "restaurant",
        "brand": "必胜客",
        "brand:en": "Pizza Hut",
        "brand:wikidata": "Q191615",
        "brand:wikipedia": "zh:必胜客",
        "brand:zh": "必胜客",
        "cuisine": "pizza",
        "name": "必胜客",
        "name:en": "Pizza Hut",
        "name:zh": "必胜客"
      }
    },
    {
      "type": "node",
      "id": 8597725150,
      "lat": 39.8924849,
      "lon": 116.3200798,
      "tags": {
        "brand": "全季酒店",
        "brand:en": "Ji Hotel",
        "brand:wikidata": "Q116895638",
        "brand:zh": "全季酒店",
        "name": "全季酒店",
        "name:en": "Ji Hotel",
        "name:zh": "全季酒店",
        "tourism": "hotel"
      }
    },
    {
      "type": "node",
      "id": 8742536056,
      "lat": 39.8949374,
      "lon": 116.3244074,
      "tags": {
        "railway": "railway_crossing",
        "ref": "菱1"
      }
    },
    {
      "type": "node",
      "id": 8850288788,
      "lat": 39.8885009,
      "lon": 116.3405295,
      "tags": {
        "bus": "yes",
        "name": "广外关厢",
        "name:zh": "广外关厢",
        "public_transport": "stop_position"
      }
    },
    {
      "type": "node",
      "id": 8850288793,
      "lat": 39.8886385,
      "lon": 116.3323901,
      "tags": {
        "bus": "yes",
        "highway": "bus_stop",
        "name": "达官营",
        "name:zh": "达官营",
        "public_transport": "platform"
      }
    },
    {
      "type": "node",
      "id": 9008943994,
      "lat": 39.8943234,
      "lon": 116.3468797,
      "tags": {
        "bus": "yes",
        "highway": "bus_stop",
        "name": "槐柏树街西口",
        "name:zh": "槐柏树街西口",
        "public_transport": "platform"
      }
    },
    {
      "type": "node",
      "id": 9008943995,
      "lat": 39.894231,
      "lon": 116.3467051,
      "tags": {
        "bus": "yes",
        "highway": "bus_stop",
        "name": "槐柏树街西口",
        "name:zh": "槐柏树街西口",
        "public_transport": "platform"
      }
    },
    {
      "type": "node",
      "id": 9108205582,
      "lat": 39.8985104,
      "lon": 116.3157049,
      "tags": {
        "amenity": "cafe",
        "brand": "Wagas",
        "brand:en": "Wagas",
        "brand:wikidata": "Q104668297",
        "brand:zh": "沃歌斯",
        "cuisine": "coffee_shop",
        "name": "Wagas",
        "name:en": "Wagas",
        "name:zh": "沃歌斯",
        "takeaway": "yes"
      }
    },
    {
      "type": "node",
      "id": 9250834461,
      "lat": 39.9109858,
      "lon": 116.3540571,
      "tags": {
        "amenity": "bank",
        "brand": "北京银行",
        "brand:en": "Bank of Beijing",
        "brand:wikidata": "Q39146",
        "brand:wikipedia": "zh:北京銀行",
        "brand:zh": "北京银行",
        "name": "北京银行",
        "name:en": "Bank of Beijing",
        "name:zh": "北京银行"
      }
    },
    {
      "type": "node",
      "id": 9250834462,
      "lat": 39.912152,
      "lon": 116.3519437,
      "tags": {
        "amenity": "bank",
        "brand": "中国建设银行",
        "brand:en": "China Construction Bank",
        "brand:wikidata": "Q26299",
        "brand:wikipedia": "en:China Construction Bank",
        "brand:zh": "中国建设银行",
        "name": "中国建设银行",
        "name:en": "China Construction Bank",
        "name:zh": "中国建设银行"
      }
    },
    {
      "type": "node",
      "id": 9250834463,
      "lat": 39.9100135,
      "lon": 116.3539346,
      "tags": {
        "amenity": "bank",
        "brand": "中国光大银行",
        "brand:en": "China Everbright Bank",
        "brand:wikidata": "Q10873167",
        "brand:wikipedia": "zh:中国光大银行",
        "brand:zh": "中国光大银行",
        "name": "中国光大银行",
        "name:en": "China Everbright Bank",
        "name:zh": "中国光大银行"
      }
    },
    {
      "type": "node",
      "id": 9250834464,
      "lat": 39.9122383,
      "lon": 116.352994,
      "tags": {
        "amenity": "bank",
        "brand": "平安银行",
        "brand:en": "Ping An Bank",
        "brand:wikidata": "Q7195659",
        "brand:wikipedia": "zh:平安银行",
        "brand:zh": "平安银行",
        "name": "平安银行",
        "name:en": "Ping An Bank",
        "name:zh": "平安银行"
      }
    },
    {
      "type": "node",
      "id": 9315926589,
      "lat": 39.9060663,
      "lon": 116.3195231,
      "tags": {
        "bus": "yes",
        "name": "军事博物馆",
        "name:zh": "军事博物馆",
        "public_transport": "stop_position"
      }
    },
    {
      "type": "node",
      "id": 9315926590,
      "lat": 39.9062235,
      "lon": 116.3188392,
      "tags": {
        "bus": "yes",
        "name": "军事博物馆",
        "name:zh": "军事博物馆",
        "public_transport": "stop_position"
      }
    },
    {
      "type": "node",
      "id": 9315926591,
      "lat": 39.9063538,
      "lon": 116.3166279,
      "tags": {
        "bus": "yes",
        "highway": "bus_stop",
        "name": "军事博物馆",
        "name:zh": "军事博物馆",
        "public_transport": "platform"
      }
    },
    {
      "type": "node",
      "id": 9315926592,
      "lat": 39.905967,
      "lon": 116.3164937,
      "tags": {
        "bus": "yes",
        "highway": "bus_stop",
        "name": "军事博物馆",
        "name:zh": "军事博物馆",
        "public_transport": "platform"
      }
    },
    {
      "type": "node",
      "id": 9315926593,
      "lat": 39.9059546,
      "lon": 116.3195193,
      "tags": {
        "bus": "yes",
        "highway": "bus_stop",
        "name": "军事博物馆",
        "name:zh": "军事博物馆",
        "public_transport": "platform"
      }
    },
    {
      "type": "node",
      "id": 9315926594,
      "lat": 39.9063744,
      "lon": 116.3188004,
      "tags": {
        "bus": "yes",
        "highway": "bus_stop",
        "name": "军事博物馆",
        "name:zh": "军事博物馆",
        "public_transport": "platform"
      }
    },
    {
      "type": "node",
      "id": 9315926595,
      "lat": 39.9060795,
      "lon": 116.3165151,
      "tags": {
        "bus": "yes",
        "name": "军事博物馆",
        "name:zh": "军事博物馆",
        "public_transport": "stop_position"
      }
    },
    {
      "type": "node",
      "id": 9315926596,
      "lat": 39.9062368,
      "lon": 116.3166287,
      "tags": {
        "bus": "yes",
        "name": "军事博物馆",
        "name:zh": "军事博物馆",
        "public_transport": "stop_position"
      }
    },
    {
      "type": "node",
      "id": 9315926597,
      "lat": 39.9068332,
      "lon": 116.3156784,
      "tags": {
        "bus": "yes",
        "highway": "bus_stop",
        "name": "军事博物馆",
        "name:zh": "军事博物馆",
        "public_transport": "platform"
      }
    },
    {
      "type": "node",
      "id": 9315926598,
      "lat": 39.9068234,
      "lon": 116.3155979,
      "tags": {
        "bus": "yes",
        "name": "军事博物馆",
        "name:zh": "军事博物馆",
        "public_transport": "stop_position"
      }
    },
    {
      "type": "node",
      "id": 9316666472,
      "lat": 39.9064381,
      "lon": 116.3272199,
      "tags": {
        "bus": "yes",
        "highway": "bus_stop",
        "name": "木樨地西",
        "name:zh": "木樨地西",
        "public_transport": "platform"
      }
    },
    {
      "type": "node",
      "id": 9316666473,
      "lat": 39.9064381,
      "lon": 116.3267398,
      "tags": {
        "bus": "yes",
        "highway": "bus_stop",
        "name": "木樨地西",
        "name:zh": "木樨地西",
        "public_transport": "platform"
      }
    },
    {
      "type": "node",
      "id": 9316666474,
      "lat": 39.9064525,
      "lon": 116.3264769,
      "tags": {
        "bus": "yes",
        "highway": "bus_stop",
        "name": "木樨地西",
        "name:zh": "木樨地西",
        "public_transport": "platform"
      }
    },
    {
      "type": "node",
      "id": 9316666475,
      "lat": 39.9064567,
      "lon": 116.3260907,
      "tags": {
        "bus": "yes",
        "highway": "bus_stop",
        "name": "木樨地西",
        "name:zh": "木樨地西",
        "public_transport": "platform"
      }
    },
    {
      "type": "node",
      "id": 9316666476,
      "lat": 39.9058085,
      "lon": 116.32678,
      "tags": {
        "bus": "yes",
        "highway": "bus_stop",
        "name": "木樨地西",
        "name:zh": "木樨地西",
        "public_transport": "platform"
      }
    },
    {
      "type": "node",
      "id": 9316666477,
      "lat": 39.9058024,
      "lon": 116.3263804,
      "tags": {
        "bus": "yes",
        "highway": "bus_stop",
        "name": "木樨地西",
        "name:zh": "木樨地西",
        "public_transport": "platform"
      }
    },
    {
      "type": "node",
      "id": 9316666478,
      "lat": 39.9058044,
      "lon": 116.3259646,
      "tags": {
        "bus": "yes",
        "highway": "bus_stop",
        "name": "木樨地西",
        "name:zh": "木樨地西",
        "public_transport": "platform"
      }
    },
    {
      "type": "node",
      "id": 9316666479,
      "lat": 39.9058106,
      "lon": 116.3256535,
      "tags": {
        "bus": "yes",
        "highway": "bus_stop",
        "name": "木樨地西",
        "name:zh": "木樨地西",
        "public_transport": "platform"
      }
    },
    {
      "type": "node",
      "id": 9316706015,
      "lat": 39.9058597,
      "lon": 116.340518,
      "tags": {
        "bus": "yes",
        "name": "工会大楼",
        "name:zh": "工会大楼",
        "public_transport": "stop_position"
      }
    },
    {
      "type": "node",
      "id": 9316706016,
      "lat": 39.905774,
      "lon": 116.3405101,
      "tags": {
        "bus": "yes",
        "highway": "bus_stop",
        "name": "工会大楼",
        "name:zh": "工会大楼",
        "public_transport": "platform"
      }
    },
    {
      "type": "node",
      "id": 9316742409,
      "lat": 39.9059228,
      "lon": 116.3524539,
      "tags": {
        "bus": "yes",
        "name": "复兴门内",
        "name:zh": "复兴门内",
        "public_transport": "stop_position"
      }
    },
    {
      "type": "node",
      "id": 9316742410,
      "lat": 39.906054,
      "lon": 116.3524487,
      "tags": {
        "bus": "yes",
        "highway": "bus_stop",
        "name": "复兴门内",
        "name:zh": "复兴门内",
        "public_transport": "platform"
      }
    },
    {
      "type": "node",
      "id": 9316742411,
      "lat": 39.9057527,
      "lon": 116.3533473,
      "tags": {
        "bus": "yes",
        "name": "复兴门内",
        "name:zh": "复兴门内",
        "public_transport": "stop_position"
      }
    },
    {
      "type": "node",
      "id": 9316742412,
      "lat": 39.9056151,
      "lon": 116.3533446,
      "tags": {
        "bus": "yes",
        "highway": "bus_stop",
        "name": "复兴门内",
        "name:zh": "复兴门内",
        "public_transport": "platform"
      }
    },
    {
      "type": "node",
      "id": 9316742413,
      "lat": 39.9057572,
      "lon": 116.3528484,
      "tags": {
        "bus": "yes",
        "name": "复兴门内",
        "name:zh": "复兴门内",
        "public_transport": "stop_position"
      }
    },
    {
      "type": "node",
      "id": 9316742414,
      "lat": 39.9056254,
      "lon": 116.3528404,
      "tags": {
        "bus": "yes",
        "highway": "bus_stop",
        "name": "复兴门内",
        "name:zh": "复兴门内",
        "public_transport": "platform"
      }
    },
    {
      "type": "node",
      "id": 9316742415,
      "lat": 39.9059216,
      "lon": 116.3522463,
      "tags": {
        "bus": "yes",
        "name": "复兴门内",
        "name:zh": "复兴门内",
        "public_transport": "stop_position"
      }
    },
    {
      "type": "node",
      "id": 9316742416,
      "lat": 39.9060513,
      "lon": 116.3522422,
      "tags": {
        "bus": "yes",
        "highway": "bus_stop",
        "name": "复兴门内",
        "name:zh": "复兴门内",
        "public_transport": "platform"
      }
    },
    {
      "type": "node",
      "id": 9316754717,
      "lat": 39.9060242,
      "lon": 116.3396121,
      "tags": {
        "bus": "yes",
        "name": "工会大楼",
        "name:zh": "工会大楼",
        "public_transport": "stop_position"
      }
    },
    {
      "type": "node",
      "id": 9316754718,
      "lat": 39.9061233,
      "lon": 116.339609,
      "tags": {
        "bus": "yes",
        "highway": "bus_stop",
        "name": "工会大楼",
        "name:zh": "工会大楼",
        "public_transport": "platform"
      }
    },
    {
      "type": "node",
      "id": 9316754719,
      "lat": 39.9057941,
      "lon": 116.3393488,
      "tags": {
        "bus": "yes",
        "highway": "bus_stop",
        "name": "工会大楼",
        "name:zh": "工会大楼",
        "public_transport": "platform"
      }
    },
    {
      "type": "node",
      "id": 9316754720,
      "lat": 39.9063387,
      "lon": 116.3316802,
      "tags": {
        "bus": "yes",
        "name": "木樨地东",
        "name:zh": "木樨地东",
        "public_transport": "stop_position"
      }
    },
    {
      "type": "node",
      "id": 9316754721,
      "lat": 39.9063888,
      "lon": 116.3316777,
      "tags": {
        "bus": "yes",
        "highway": "bus_stop",
        "name": "木樨地东",
        "name:zh": "木樨地东",
        "public_transport": "platform"
      }
    },
    {
      "type": "node",
      "id": 9316754722,
      "lat": 39.9058784,
      "lon": 116.331396,
      "tags": {
        "bus": "yes",
        "name": "木樨地东",
        "name:zh": "木樨地东",
        "public_transport": "stop_position"
      }
    },
    {
      "type": "node",
      "id": 9316754723,
      "lat": 39.90579,
      "lon": 116.3314068,
      "tags": {
        "bus": "yes",
        "highway": "bus_stop",
        "name": "木樨地东",
        "name:zh": "木樨地东",
        "public_transport": "platform"
      }
    },
    {
      "type": "node",
      "id": 9316761698,
      "lat": 39.9059679,
      "lon": 116.3442177,
      "tags": {
        "bus": "yes",
        "name": "南礼士路",
        "name:zh": "南礼士路",
        "public_transport": "stop_position"
      }
    },
    {
      "type": "node",
      "id": 9316761699,
      "lat": 39.9059727,
      "lon": 116.3437585,
      "tags": {
        "bus": "yes",
        "name": "南礼士路",
        "name:zh": "南礼士路",
        "public_transport": "stop_position"
      }
    },
    {
      "type": "node",
      "id": 9316761700,
      "lat": 39.9060143,
      "lon": 116.3442144,
      "tags": {
        "bus": "yes",
        "highway": "bus_stop",
        "name": "南礼士路",
        "name:zh": "南礼士路",
        "public_transport": "platform"
      }
    },
    {
      "type": "node",
      "id": 9316761701,
      "lat": 39.9060143,
      "lon": 116.3437557,
      "tags": {
        "bus": "yes",
        "highway": "bus_stop",
        "name": "南礼士路",
        "name:zh": "南礼士路",
        "public_transport": "platform"
      }
    },
    {
      "type": "node",
      "id": 9316761702,
      "lat": 39.9058328,
      "lon": 116.3442504,
      "tags": {
        "bus": "yes",
        "name": "南礼士路",
        "name:zh": "南礼士路",
        "public_transport": "stop_position"
      }
    },
    {
      "type": "node",
      "id": 9316761703,
      "lat": 39.905718,
      "lon": 116.3442573,
      "tags": {
        "bus": "yes",
        "highway": "bus_stop",
        "name": "南礼士路",
        "name:zh": "南礼士路",
        "public_transport": "platform"
      }
    },
    {
      "type": "node",
      "id": 9316761704,
      "lat": 39.9058342,
      "lon": 116.3436296,
      "tags": {
        "bus": "yes",
        "name": "南礼士路",
        "name:zh": "南礼士路",
        "public_transport": "stop_position"
      }
    },
    {
      "type": "node",
      "id": 9316761705,
      "lat": 39.9057304,
      "lon": 116.3436216,
      "tags": {
        "bus": "yes",
        "highway": "bus_stop",
        "name": "南礼士路",
        "name:zh": "南礼士路",
        "public_transport": "platform"
      }
    },
    {
      "type": "node",
      "id": 9316800039,
      "lat": 39.9059793,
      "lon": 116.3581672,
      "tags": {
        "bus": "yes",
        "highway": "bus_stop",
        "name": "民族文化宫",
        "name:zh": "民族文化宫",
        "public_transport": "platform"
      }
    },
    {
      "type": "node",
      "id": 9336524148,
      "lat": 39.9201315,
      "lon": 116.3470039,
      "tags": {
        "bench": "no",
        "bin": "yes",
        "bus": "yes",
        "highway": "bus_stop",
        "name": "南礼士路北口",
        "name:zh": "南礼士路北口",
        "public_transport": "platform",
        "shelter": "yes"
      }
    },
    {
      "type": "node",
      "id": 9336530019,
      "lat": 39.9207895,
      "lon": 116.3469752,
      "tags": {
        "bench": "yes",
        "bin": "no",
        "bus": "yes",
        "highway": "bus_stop",
        "name": "阜成门",
        "name:zh": "阜成门",
        "public_transport": "platform",
        "shelter": "yes"
      }
    },
    {
      "type": "node",
      "id": 9336570854,
      "lat": 39.9171014,
      "lon": 116.3459927,
      "tags": {
        "bus": "yes",
        "name": "月坛公园",
        "name:zh": "月坛公园",
        "public_transport": "stop_position"
      }
    },
    {
      "type": "node",
      "id": 9336570855,
      "lat": 39.9171548,
      "lon": 116.3459766,
      "tags": {
        "bench": "yes",
        "bin": "no",
        "bus": "yes",
        "highway": "bus_stop",
        "name": "月坛公园",
        "name:zh": "月坛公园",
        "public_transport": "platform",
        "shelter": "yes"
      }
    },
    {
      "type": "node",
      "id": 9336570856,
      "lat": 39.916982,
      "lon": 116.3466391,
      "tags": {
        "bus": "yes",
        "name": "月坛公园",
        "name:zh": "月坛公园",
        "public_transport": "stop_position"
      }
    },
    {
      "type": "node",
      "id": 9336570857,
      "lat": 39.9169203,
      "lon": 116.3466364,
      "tags": {
        "bench": "no",
        "bin": "yes",
        "bus": "yes",
        "highway": "bus_stop",
        "name": "月坛公园",
        "name:zh": "月坛公园",
        "public_transport": "platform",
        "shelter": "yes"
      }
    },
    {
      "type": "node",
      "id": 9336570858,
      "lat": 39.9160748,
      "lon": 116.3472614,
      "tags": {
        "bench": "no",
        "bin": "yes",
        "bus": "yes",
        "highway": "bus_stop",
        "name": "月坛公园",
        "name:zh": "月坛公园",
        "public_transport": "platform",
        "shelter": "yes"
      }
    },
    {
      "type": "node",
      "id": 9336570859,
      "lat": 39.9165994,
      "lon": 116.3473982,
      "tags": {
        "bench": "no",
        "bin": "yes",
        "bus": "yes",
        "highway": "bus_stop",
        "name": "月坛公园",
        "name:zh": "月坛公园",
        "public_transport": "platform",
        "shelter": "yes"
      }
    },
    {
      "type": "node",
      "id": 9336570860,
      "lat": 39.9189404,
      "lon": 116.3469958,
      "tags": {
        "bench": "no",
        "bin": "yes",
        "bus": "yes",
        "highway": "bus_stop",
        "name": "月坛公园",
        "name:zh": "月坛公园",
        "public_transport": "platform",
        "shelter": "yes"
      }
    },
    {
      "type": "node",
      "id": 9336570861,
      "lat": 39.9175138,
      "lon": 116.3472842,
      "tags": {
        "bench": "no",
        "bin": "yes",
        "bus": "yes",
        "highway": "bus_stop",
        "name": "月坛公园",
        "name:zh": "月坛公园",
        "public_transport": "platform",
        "shelter": "yes"
      }
    },
    {
      "type": "node",
      "id": 9336578982,
      "lat": 39.9126628,
      "lon": 116.3459619,
      "tags": {
        "bus": "yes",
        "highway": "bus_stop",
        "name": "儿童医院路口西",
        "name:zh": "儿童医院路口西",
        "public_transport": "platform",
        "shelter": "yes"
      }
    },
    {
      "type": "node",
      "id": 9336578983,
      "lat": 39.9126225,
      "lon": 116.3459685,
      "tags": {
        "bus": "yes",
        "name": "儿童医院路口西",
        "name:zh": "儿童医院路口西",
        "public_transport": "stop_position"
      }
    },
    {
      "type": "node",
      "id": 9336578984,
      "lat": 39.9126542,
      "lon": 116.3416795,
      "tags": {
        "bus": "yes",
        "name": "二七剧场路北口",
        "name:zh": "二七剧场路北口",
        "public_transport": "stop_position"
      }
    },
    {
      "type": "node",
      "id": 9336578985,
      "lat": 39.9127297,
      "lon": 116.3416824,
      "tags": {
        "bus": "yes",
        "highway": "bus_stop",
        "name": "二七剧场路北口",
        "name:zh": "二七剧场路北口",
        "public_transport": "platform"
      }
    },
    {
      "type": "node",
      "id": 9336578986,
      "lat": 39.9124643,
      "lon": 116.3411432,
      "tags": {
        "bus": "yes",
        "highway": "bus_stop",
        "name": "二七剧场路北口",
        "name:zh": "二七剧场路北口",
        "public_transport": "platform"
      }
    },
    {
      "type": "node",
      "id": 9336578987,
      "lat": 39.9125948,
      "lon": 116.3411461,
      "tags": {
        "bus": "yes",
        "name": "二七剧场路北口",
        "name:zh": "二七剧场路北口",
        "public_transport": "stop_position"
      }
    },
    {
      "type": "node",
      "id": 9336578988,
      "lat": 39.9141006,
      "lon": 116.3388168,
      "tags": {
        "bus": "yes",
        "name": "月坛南街北站",
        "name:zh": "月坛南街北站",
        "public_transport": "stop_position"
      }
    },
    {
      "type": "node",
      "id": 9336578989,
      "lat": 39.9141143,
      "lon": 116.3387641,
      "tags": {
        "bus": "yes",
        "highway": "bus_stop",
        "name": "月坛南街北站",
        "name:zh": "月坛南街北站",
        "public_transport": "platform"
      }
    },
    {
      "type": "node",
      "id": 9336578990,
      "lat": 39.9139929,
      "lon": 116.3390672,
      "tags": {
        "bus": "yes",
        "highway": "bus_stop",
        "name": "月坛南街北站",
        "name:zh": "月坛南街北站",
        "public_transport": "platform"
      }
    },
    {
      "type": "node",
      "id": 9336582117,
      "lat": 39.9170643,
      "lon": 116.3395155,
      "tags": {
        "bus": "yes",
        "name": "月坛北街",
        "name:zh": "月坛北街",
        "public_transport": "stop_position"
      }
    },
    {
      "type": "node",
      "id": 9336582118,
      "lat": 39.9171158,
      "lon": 116.3395151,
      "tags": {
        "bus": "yes",
        "highway": "bus_stop",
        "name": "月坛北街",
        "name:zh": "月坛北街",
        "public_transport": "platform"
      }
    },
    {
      "type": "node",
      "id": 9336582119,
      "lat": 39.9169564,
      "lon": 116.3410868,
      "tags": {
        "bus": "yes",
        "name": "月坛北街",
        "name:zh": "月坛北街",
        "public_transport": "stop_position"
      }
    },
    {
      "type": "node",
      "id": 9336582120,
      "lat": 39.9168915,
      "lon": 116.3410842,
      "tags": {
        "bus": "yes",
        "highway": "bus_stop",
        "name": "月坛北街",
        "name:zh": "月坛北街",
        "public_transport": "platform"
      }
    },
    {
      "type": "node",
      "id": 9336604439,
      "lat": 39.9116517,
      "lon": 116.3467222,
      "tags": {
        "bus": "yes",
        "highway": "bus_stop",
        "name": "北京儿童医院西门",
        "name:zh": "北京儿童医院西门",
        "public_transport": "platform"
      }
    },
    {
      "type": "node",
      "id": 9336604440,
      "lat": 39.911808,
      "lon": 116.3467786,
      "tags": {
        "bus": "yes",
        "highway": "bus_stop",
        "name": "北京儿童医院西门",
        "name:zh": "北京儿童医院西门",
        "public_transport": "platform"
      }
    },
    {
      "type": "node",
      "id": 9336604441,
      "lat": 39.9116642,
      "lon": 116.346664,
      "tags": {
        "bus": "yes",
        "name": "北京儿童医院西门",
        "name:zh": "北京儿童医院西门",
        "public_transport": "stop_position"
      }
    },
    {
      "type": "node",
      "id": 9336604442,
      "lat": 39.9118152,
      "lon": 116.346708,
      "tags": {
        "bus": "yes",
        "name": "北京儿童医院西门",
        "name:zh": "北京儿童医院西门",
        "public_transport": "stop_position"
      }
    },
    {
      "type": "node",
      "id": 9336604443,
      "lat": 39.91195,
      "lon": 116.3466901,
      "tags": {
        "bus": "yes",
        "highway": "bus_stop",
        "name": "北京儿童医院西门",
        "name:zh": "北京儿童医院西门",
        "public_transport": "platform"
      }
    },
    {
      "type": "node",
      "id": 9336604446,
      "lat": 39.9119366,
      "lon": 116.3467469,
      "tags": {
        "bus": "yes",
        "name": "北京儿童医院西门",
        "name:zh": "北京儿童医院西门",
        "public_transport": "stop_position"
      }
    },
    {
      "type": "node",
      "id": 9336604447,
      "lat": 39.9125204,
      "lon": 116.345263,
      "tags": {
        "bus": "yes",
        "highway": "bus_stop",
        "name": "儿童医院路口西",
        "name:zh": "儿童医院路口西",
        "public_transport": "platform",
        "shelter": "yes"
      }
    },
    {
      "type": "node",
      "id": 9336604448,
      "lat": 39.9125665,
      "lon": 116.3452642,
      "tags": {
        "bus": "yes",
        "name": "儿童医院路口西",
        "name:zh": "儿童医院路口西",
        "public_transport": "stop_position"
      }
    },
    {
      "type": "node",
      "id": 9339359050,
      "lat": 39.9079204,
      "lon": 116.3464342,
      "tags": {
        "bus": "yes",
        "name": "南礼士路南口",
        "name:zh": "南礼士路南口",
        "public_transport": "stop_position"
      }
    },
    {
      "type": "node",
      "id": 9339359051,
      "lat": 39.907734,
      "lon": 116.3464279,
      "tags": {
        "bus": "yes",
        "name": "南礼士路南口",
        "name:zh": "南礼士路南口",
        "public_transport": "stop_position"
      }
    },
    {
      "type": "node",
      "id": 9339359052,
      "lat": 39.9079278,
      "lon": 116.3463762,
      "tags": {
        "bus": "yes",
        "highway": "bus_stop",
        "name": "南礼士路南口",
        "name:zh": "南礼士路南口",
        "public_transport": "platform"
      }
    },
    {
      "type": "node",
      "id": 9339359053,
      "lat": 39.9077467,
      "lon": 116.3463789,
      "tags": {
        "bus": "yes",
        "highway": "bus_stop",
        "name": "南礼士路南口",
        "name:zh": "南礼士路南口",
        "public_transport": "platform"
      }
    },
    {
      "type": "node",
      "id": 9339359054,
      "lat": 39.9075019,
      "lon": 116.3465694,
      "tags": {
        "bus": "yes",
        "highway": "bus_stop",
        "name": "南礼士路南口",
        "name:zh": "南礼士路南口",
        "public_transport": "platform"
      }
    },
    {
      "type": "node",
      "id": 9339359055,
      "lat": 39.9074833,
      "lon": 116.346427,
      "tags": {
        "bus": "yes",
        "name": "南礼士路南口",
        "name:zh": "南礼士路南口",
        "public_transport": "stop_position"
      }
    },
    {
      "type": "node",
      "id": 9339359056,
      "lat": 39.9075944,
      "lon": 116.3465586,
      "tags": {
        "bus": "yes",
        "highway": "bus_stop",
        "name": "南礼士路南口",
        "name:zh": "南礼士路南口",
        "public_transport": "platform"
      }
    },
    {
      "type": "node",
      "id": 9339359057,
      "lat": 39.9076028,
      "lon": 116.3464261,
      "tags": {
        "bus": "yes",
        "name": "南礼士路南口",
        "name:zh": "南礼士路南口",
        "public_transport": "stop_position"
      }
    },
    {
      "type": "node",
      "id": 9342552746,
      "lat": 39.9031481,
      "lon": 116.3464647,
      "tags": {
        "bus": "yes",
        "name": "真武庙",
        "name:zh": "真武庙",
        "public_transport": "stop_position"
      }
    },
    {
      "type": "node",
      "id": 9342552747,
      "lat": 39.9031399,
      "lon": 116.3465774,
      "tags": {
        "bus": "yes",
        "highway": "bus_stop",
        "name": "真武庙",
        "name:zh": "真武庙",
        "public_transport": "platform"
      }
    },
    {
      "type": "node",
      "id": 9342552748,
      "lat": 39.903251,
      "lon": 116.3464647,
      "tags": {
        "bus": "yes",
        "name": "真武庙",
        "name:zh": "真武庙",
        "public_transport": "stop_position"
      }
    },
    {
      "type": "node",
      "id": 9342552749,
      "lat": 39.9032284,
      "lon": 116.3463601,
      "tags": {
        "bus": "yes",
        "highway": "bus_stop",
        "name": "真武庙",
        "name:zh": "真武庙",
        "public_transport": "platform"
      }
    },
    {
      "type": "node",
      "id": 9342552750,
      "lat": 39.9046831,
      "lon": 116.3463876,
      "tags": {
        "bus": "yes",
        "name": "真武庙",
        "name:zh": "真武庙",
        "public_transport": "stop_position"
      }
    },
    {
      "type": "node",
      "id": 9342552751,
      "lat": 39.9046872,
      "lon": 116.3463306,
      "tags": {
        "bus": "yes",
        "highway": "bus_stop",
        "name": "真武庙",
        "name:zh": "真武庙",
        "public_transport": "platform"
      }
    },
    {
      "type": "node",
      "id": 9342552752,
      "lat": 39.9044074,
      "lon": 116.346572,
      "tags": {
        "bus": "yes",
        "highway": "bus_stop",
        "name": "真武庙",
        "name:zh": "真武庙",
        "public_transport": "platform"
      }
    },
    {
      "type": "node",
      "id": 9342552753,
      "lat": 39.9044007,
      "lon": 116.3463939,
      "tags": {
        "bus": "yes",
        "name": "真武庙",
        "name:zh": "真武庙",
        "public_transport": "stop_position"
      }
    },
    {
      "type": "node",
      "id": 9342569630,
      "lat": 39.8998744,
      "lon": 116.3451478,
      "tags": {
        "bus": "yes",
        "highway": "bus_stop",
        "name": "西便门外",
        "name:zh": "西便门外",
        "public_transport": "platform"
      }
    },
    {
      "type": "node",
      "id": 9342569631,
      "lat": 39.8998502,
      "lon": 116.3447998,
      "tags": {
        "bus": "yes",
        "highway": "bus_stop",
        "name": "西便门外",
        "name:zh": "西便门外",
        "public_transport": "platform"
      }
    },
    {
      "type": "node",
      "id": 9342569632,
      "lat": 39.9006995,
      "lon": 116.3465935,
      "tags": {
        "bus": "yes",
        "highway": "bus_stop",
        "name": "西便门外",
        "name:zh": "西便门外",
        "public_transport": "platform"
      }
    },
    {
      "type": "node",
      "id": 9342569634,
      "lat": 39.9006985,
      "lon": 116.3465506,
      "tags": {
        "bus": "yes",
        "name": "西便门外",
        "name:zh": "西便门外",
        "public_transport": "stop_position"
      }
    },
    {
      "type": "node",
      "id": 9342569635,
      "lat": 39.900575,
      "lon": 116.3465506,
      "tags": {
        "bus": "yes",
        "name": "西便门外",
        "name:zh": "西便门外",
        "public_transport": "stop_position"
      }
    },
    {
      "type": "node",
      "id": 9342569636,
      "lat": 39.9005719,
      "lon": 116.3464446,
      "tags": {
        "bus": "yes",
        "highway": "bus_stop",
        "name": "西便门外",
        "name:zh": "西便门外",
        "public_transport": "platform"
      }
    },
    {
      "type": "node",
      "id": 9342587368,
      "lat": 39.8978455,
      "lon": 116.3420847,
      "tags": {
        "bus": "yes",
        "highway": "bus_stop",
        "name": "天宁寺桥北",
        "name:zh": "天宁寺桥北",
        "public_transport": "platform",
        "shelter": "yes"
      }
    },
    {
      "type": "node",
      "id": 9342587369,
      "lat": 39.8983743,
      "lon": 116.3421558,
      "tags": {
        "bus": "yes",
        "name": "天宁寺桥北",
        "name:zh": "天宁寺桥北",
        "public_transport": "stop_position"
      }
    },